date,station_name,degrees_from_mean,longitude,latitude,max_temp,min_temp,type
2013-09-11,HARTFORD BRAINARD FLD,20.35,-72.6506,41.7361,34.4,21.7,Strong Hot
2013-07-16,BOISE LUCKY PEAK DAM,6.92,-116.0542,43.5253,37.8,21.1,Weak Hot
2013-10-04,WINTHROP UNIV,7.42,-81.0317,34.9381,30.0,13.9,Weak Hot
2013-11-28,WHITING FLD NAS,-12.15,-87.0167,30.7167,11.1,-3.2,Weak Cold
2013-06-30,TIMPANOGOS CAVE,10.43,-111.7075,40.4447,35.6,20.0,Weak Hot
2013-07-01,SEWARD AP,-4.9,-149.4167,60.1283,11.7,8.9,Weak Cold
2013-05-14,LOGAN UTAH ST UNIV,11.26,-111.8033,41.7456,30.6,13.3,Weak Hot
2013-05-02,SUGARLOAF RSVR,-21.11,-106.3714,39.2494,5.0,-23.9,Weak Cold
2013-03-03,THOMASVILLE,-14.71,-87.7347,31.9172,6.1,-3.3,Weak Cold
2013-07-03,SHREVEPORT,-5.99,-93.8411,32.4506,32.2,16.7,Weak Cold
2013-11-28,ORLANDO INTL AP,-10.47,-81.325,28.4339,19.4,3.9,Weak Cold
2013-05-04,AUSTIN WWT FAC,-20.01,-92.9739,43.6542,0.6,-1.1,Weak Cold
2013-12-10,GRANTS PASS,-23.06,-123.3236,42.4244,-1.1,-13.3,Strong Cold
2013-05-13,CALLAHAN,8.23,-122.8045,41.3111,28.3,11.7,Weak Hot
2013-05-30,HUNTSVILLE INTL AP,6.52,-86.7861,34.6439,30.6,21.1,Weak Hot
2013-11-23,PALMDALE,-11.71,-118.0939,34.5883,7.8,3.3,Weak Cold
2013-11-28,WESTERVILLE,-13.3,-82.9433,40.1264,-1.7,-5.6,Weak Cold
2013-09-25,LOVELOCK DERBY FLD,-14.23,-118.5692,40.0681,14.4,3.3,Weak Cold
2013-10-03,GRAPEVINE DAM,10.84,-97.0553,32.9506,32.2,22.8,Weak Hot
2013-04-11,CANBY,-14.47,-96.2697,44.7183,-0.6,-3.3,Weak Cold
2013-07-23,ABIQUIU DAM,-18.21,-106.4278,36.2403,20.0,7.2,Strong Cold
2013-01-11,ROCKFORD GTR ROCKFORD AP,15.7,-89.0931,42.1928,10.0,4.4,Weak Hot
2013-05-12,HOOD RIVER EXP STN,7.61,-121.5175,45.6847,30.6,14.4,Weak Hot
2013-01-23,RUXTON PARK,10.83,-104.9742,38.8417,12.2,-7.2,Weak Hot
2013-12-07,PARK RAPIDS MUNI AP,-34.54,-95.0678,46.9006,-22.7,-33.8,Strong Cold
2013-10-26,CULLOWHEE,-10.16,-83.1747,35.3117,11.1,-3.9,Weak Cold
2013-12-06,AMISTAD 5 SSW,-21.21,-103.1819,35.8742,-11.1,-17.8,Weak Cold
2013-01-14,MINCHUMINA,17.04,-152.2817,63.9033,-3.9,-8.9,Weak Hot
2013-01-29,LAFAYETTE RGNL AP,13.64,-91.9875,30.205,24.4,19.4,Weak Hot
2013-05-30,INTL FALLS INTL AP,11.46,-93.3981,48.5614,20.6,15.6,Weak Hot
2013-09-03,AZTEC RUINS NM,9.55,-108.0006,36.835,32.8,18.3,Weak Hot
2013-12-31,MANISTIQUE WWTP,-11.32,-86.2514,45.9511,-12.2,-21.7,Weak Cold
2013-07-14,BEAVER CITY,7.88,-99.8278,40.1306,42.2,22.8,Weak Hot
2013-06-13,KOTZEBUE RALPH WEIN AP,12.76,-162.6333,66.8667,23.3,3.9,Weak Hot
2013-02-02,NEW CUMBERLAND L/D,-12.15,-80.6275,40.5261,-7.8,-12.8,Weak Cold
2013-03-04,MADRAS 2 N,-8.0,-121.1461,44.6633,8.3,-8.9,Weak Cold
2013-08-15,WINTHROP 1 WSW,8.02,-120.1886,48.4742,31.7,17.2,Weak Hot
2013-07-27,OSAGE,-8.01,-92.8106,43.2794,21.1,8.9,Weak Cold
2013-03-27,IDABEL,-13.41,-94.8278,33.9336,12.2,-8.3,Weak Cold
2013-05-03,NIXON,-20.35,-97.7675,29.2283,20.6,7.8,Strong Cold
2013-03-15,RUSSELL MUNI AP,16.24,-98.8092,38.8761,29.4,4.4,Weak Hot
2013-05-14,DALE ENTERPRISE,-10.47,-78.9353,38.4547,13.9,-1.1,Weak Cold
2013-03-07,WALSENBURG 1 NW,10.38,-104.7956,37.6303,18.3,7.8,Weak Hot
2013-11-25,LEWISBURG 3 N,-28.6,-80.4042,37.8564,-5.6,-11.7,Strong Cold
2013-04-01,CASTANA EXP FARM,-11.02,-95.8364,42.0633,10.0,-7.8,Weak Cold
2013-12-17,LOS ANGELES DWTN USC CAMPUS,5.08,-118.2353,34.0511,27.8,14.4,Weak Hot
2013-05-03,ALMA DAM 4,-18.92,-91.9194,44.3272,2.2,0.0,Weak Cold
2013-05-20,HOOPESTON,10.86,-87.685,40.4664,30.0,21.7,Weak Hot
2013-04-10,EVANSVILLE REGIONAL AP,12.56,-87.5206,38.0442,28.9,20.0,Weak Hot
2013-09-15,CRESTVIEW BOB SIKES AP,4.35,-86.5225,30.7797,35.6,18.3,Weak Hot
2013-07-12,VALENTINE MILLER FLD,6.97,-100.55,42.8783,36.7,22.8,Weak Hot
2013-04-15,WENATCHEE PANGBORN AP,-8.47,-120.2014,47.3978,8.3,0.0,Weak Cold
2013-09-01,FIVE POINTS 5 SSW,6.19,-120.1561,36.3642,36.7,21.1,Weak Hot
2013-04-16,JACKSON MCKELLAR AP,10.41,-88.9167,35.5931,28.9,20.0,Weak Hot
2013-12-11,LA VERKIN,-11.21,-113.2686,37.2008,0.0,-13.9,Weak Cold
2013-08-08,PRADE RCH,4.41,-99.7908,29.9167,37.8,22.2,Weak Hot
2013-01-29,MORRIS 1 NW,31.62,-88.4336,41.3708,15.6,6.1,Strong Hot
2013-05-03,CALHOUN RSCH STN,-9.03,-92.3486,32.5133,19.4,7.8,Weak Cold
2013-01-14,PERU 2 WSW,30.72,-73.57,44.5658,13.3,1.7,Strong Hot
2013-11-25,HICKORY FAA AP,-23.55,-81.3819,35.7425,2.8,-6.6,Strong Cold
2013-04-20,WOODLAND,7.71,-67.4044,45.1569,22.2,6.7,Weak Hot
2013-09-03,MEXICAN HAT,10.95,-109.8675,37.1497,35.6,23.3,Weak Hot
2013-05-06,PENSACOLA RGNL AP,-8.86,-87.1869,30.4781,22.8,10.0,Weak Cold
2013-12-21,BROWNSVILLE,18.29,-97.4186,25.9156,29.4,22.8,Strong Hot
2013-10-04,LA HARPE,13.32,-90.9686,40.5839,26.1,18.3,Weak Hot
2013-11-25,WAUSEON WTP,-12.36,-84.1453,41.5183,-2.8,-7.8,Weak Cold
2013-07-31,EFFINGHAM 3SW,-9.92,-88.6244,39.1181,21.1,18.3,Weak Cold
2013-01-20,MOORE HAVEN LOCK 1,9.72,-81.0872,26.84,25.6,20.6,Weak Hot
2013-05-17,ABILENE RGNL AP,10.92,-99.6822,32.4106,40.0,22.2,Weak Hot
2013-06-27,MONTEAGLE,4.53,-85.8417,35.2244,28.9,21.1,Weak Hot
2013-09-06,SYRACUSE 1NE,9.25,-101.7417,37.9928,37.8,18.9,Weak Hot
2013-08-16,PLANT CITY,2.56,-82.1422,28.0236,33.9,25.0,Weak Hot
2013-06-30,RED BLUFF MUNI AP,10.4,-122.2536,40.1519,42.8,22.8,Weak Hot
2013-06-06,CHISOS BASIN,5.57,-103.3003,29.2703,35.6,20.0,Weak Hot
2013-12-28,EAGLE,-22.56,-141.2036,64.7856,-23.9,-48.3,Weak Cold
2013-12-16,RED BLUFF MUNI AP,9.36,-122.2536,40.1519,22.2,-2.1,Weak Hot
2013-12-18,BRASSUA DAM,-18.48,-69.812,45.6603,-13.9,-31.1,Weak Cold
2013-04-04,MILLVILLE MUNI AP,-11.55,-75.0667,39.3667,8.9,-6.6,Weak Cold
2013-03-16,TATUM,10.63,-103.3611,33.2422,30.0,2.2,Weak Hot
2013-10-29,CLOQUET,-20.27,-92.5253,46.7047,1.1,-7.8,Strong Cold
2013-10-23,TOLEDO 3N,-14.86,-92.5806,42.0356,2.2,-2.2,Weak Cold
2013-09-02,RITZVILLE 1 SSE,8.82,-118.3722,47.1178,32.8,16.1,Weak Hot
2013-07-28,SIOUX CITY GATEWAY AP,-11.23,-96.3792,42.3914,25.0,6.7,Weak Cold
2013-10-05,WELLSBORO 4 SW,10.44,-77.3894,41.7003,24.4,13.9,Weak Hot
2013-02-04,PORTHILL,8.65,-116.4992,48.9994,3.3,2.8,Weak Hot
2013-09-01,MORA,10.01,-93.3147,45.8775,31.1,16.7,Weak Hot
2013-11-23,COTTAGE GROVE 2E,-8.15,-123.0275,43.7917,8.3,-5.0,Weak Cold
2013-12-10,OKLAHOMA CITY WILL ROGERS AP,-13.45,-97.6006,35.3889,3.9,-14.9,Weak Cold
2013-05-02,BAKER CITY MUNI AP,-9.68,-117.8086,44.8428,20.6,-6.6,Weak Cold
2013-11-29,ANCHORAGE MERRILL FLD,-13.55,-149.855,61.2169,-15.5,-22.1,Weak Cold
2013-05-03,MONDOVI,-19.12,-91.6719,44.5647,2.8,-0.6,Weak Cold
2013-07-16,BROWNWOOD 2ENE,-13.04,-98.9456,31.7383,22.8,18.3,Weak Cold
2013-08-27,SANDUSKY,5.27,-82.7167,41.45,28.3,22.8,Weak Hot
2013-09-06,SISSETON,10.66,-97.0392,45.6656,32.8,20.0,Weak Hot
2013-04-19,PAONIA 1 SW,-23.74,-107.6236,38.8522,3.9,-9.4,Strong Cold
2013-06-13,HENDERSON 8 SSW,7.87,-87.6456,37.7558,33.9,25.6,Weak Hot
2013-12-24,TURTLE LAKE,-18.28,-100.8883,47.5214,-13.3,-33.3,Weak Cold
2013-09-07,QUINTER,11.03,-100.2389,39.0669,37.8,18.9,Weak Hot
2013-04-05,ALLARDT,-13.49,-84.8744,36.3806,6.1,2.2,Weak Cold
2013-04-05,FRANKLIN SEWAGE PLT,-13.65,-86.8686,35.9417,8.3,5.0,Weak Cold
2013-11-13,OLNEY 2S,-10.86,-88.0817,38.7003,2.8,-8.9,Weak Cold
2013-12-09,FT MYERS PAGE FLD AP,5.23,-81.8614,26.585,30.0,19.4,Weak Hot
2013-04-21,HIGH SPRINGS,-12.18,-82.5972,29.8286,16.1,7.8,Weak Cold
2013-01-20,COTTONWOOD WEIR,-22.29,-111.7869,40.6242,-7.2,-16.7,Strong Cold
2013-09-03,LEMON COVE,6.3,-119.0264,36.3817,36.1,20.6,Weak Hot
2013-05-02,KANSAS CITY DOWNTOWN AP,-30.72,-94.5969,39.1208,6.7,1.1,Strong Cold
2013-05-05,MIDVILLE EXP STN,-10.93,-82.2156,32.8753,17.8,14.4,Weak Cold
2013-05-01,CEDARVILLE,-7.28,-120.1803,41.5306,17.2,-2.8,Weak Cold
2013-12-07,UNION 8 S,29.55,-81.6628,34.6053,25.0,16.1,Strong Hot
2013-04-04,DALE ENTERPRISE,-10.31,-78.9353,38.4547,10.6,-6.1,Weak Cold
2013-08-22,APALACHICOLA AIRPORT,-5.18,-85.0206,29.7258,26.7,23.3,Weak Cold
2013-05-05,LAKE PARK,-15.48,-95.3247,43.4483,5.6,0.6,Weak Cold
2013-03-16,MESA VERDE NP,7.63,-108.4883,37.1986,19.4,5.0,Weak Hot
2013-11-28,GRENADA,-27.45,-89.8136,33.7608,2.8,-7.2,Strong Cold
2013-06-25,VERO BEACH INTL AP,3.3,-80.2428,27.6531,31.7,25.6,Weak Hot
2013-09-13,MORO,19.81,-120.7236,45.4825,34.4,16.7,Strong Hot
2013-04-04,MADILL,-16.66,-96.7708,34.0919,7.2,3.9,Weak Cold
2013-07-17,EDGARTOWN,6.09,-70.5181,41.3853,32.2,19.4,Weak Hot
2013-11-24,GUTHRIE CTR,-33.54,-94.4972,41.6686,-9.4,-18.9,Strong Cold
2013-04-19,ALLEGANY SP,13.44,-78.7497,42.1003,23.9,12.8,Weak Hot
2013-05-14,HIGHMORE 1 W,10.08,-99.455,44.5222,32.2,16.7,Weak Hot
2013-04-10,MTN PARK,-11.05,-105.8225,32.9539,7.8,-0.6,Weak Cold
2013-07-11,CORSICANA,3.24,-96.4867,32.1225,39.4,26.1,Weak Hot
2013-05-04,ABILENE RGNL AP,-10.61,-99.6822,32.4106,25.6,5.6,Weak Cold
2013-05-15,CHATHAM,-9.95,-79.4103,36.8225,20.0,-0.6,Weak Cold
2013-09-26,PALISADES,-14.46,-111.2167,43.35,8.3,2.8,Weak Cold
2013-12-23,SAPELO ISLAND,10.99,-81.2811,31.3972,25.0,17.8,Weak Hot
2013-07-12,RESERVE RS,5.91,-108.7769,33.7158,29.4,17.2,Weak Hot
2013-07-01,MADISONVILLE,-6.38,-95.9203,30.9392,35.6,16.1,Weak Cold
2013-07-21,FT DUCHESNE,4.69,-109.8611,40.2842,37.8,13.9,Weak Hot
2013-09-09,GOODLAND,9.4,-101.7,39.3669,36.1,19.4,Weak Hot
2013-07-17,MISSOULA 6 NW WFO,7.93,-114.0911,46.9244,35.0,20.0,Weak Hot
2013-09-03,YELLOWTAIL DAM,12.27,-107.9383,45.3128,34.4,21.1,Weak Hot
2013-10-11,DETROIT LAKES 1 NNE,13.67,-95.8372,46.8372,18.9,15.0,Weak Hot
2013-09-07,BOULDER,6.98,-111.42,37.905,27.2,16.7,Weak Hot
2013-11-23,GATESVILLE,-16.88,-97.7019,31.4144,3.9,0.6,Weak Cold
2013-12-02,CHUGWATER,13.97,-104.8222,41.7594,9.4,5.6,Weak Hot
2013-12-06,ROME R B RUSSELL AP,12.41,-85.1611,34.3478,25.0,6.7,Weak Hot
2013-06-05,FERGUS FALLS,-9.61,-96.1172,46.2919,15.0,12.2,Weak Cold
2013-05-20,PAVILLION,9.05,-108.6942,43.2458,15.6,12.8,Weak Hot
2013-02-23,CRESCENT CITY,7.87,-81.5161,29.425,29.4,17.2,Weak Hot
2013-05-26,KIT CARSON,8.34,-102.8031,38.7658,35.0,14.4,Weak Hot
2013-01-02,QUARTZSITE,-7.85,-114.2272,33.665,13.9,-3.9,Weak Cold
2013-10-03,WILMINGTON 3 N,11.84,-83.85,39.4833,27.2,17.2,Weak Hot
2013-07-28,WHITESTOWN,-16.13,-86.3542,39.9961,22.2,8.9,Strong Cold
2013-08-15,HARRISON BOONE CO AP,-8.02,-93.1567,36.2667,23.9,11.1,Weak Cold
2013-05-31,CIRCLE HOT SPRINGS,13.29,-144.6422,65.4939,26.1,5.0,Weak Hot
2013-09-01,POMONA/FAIRPLEX,7.31,-117.7658,34.0817,34.4,22.2,Weak Hot
2013-07-03,NEW MEADOWS RS,9.44,-116.2933,44.9714,36.1,15.6,Weak Hot
2013-07-16,CEDARVILLE,7.47,-120.1803,41.5306,35.0,20.0,Weak Hot
2013-06-07,OSHKOSH,-11.29,-88.5581,44.0206,13.9,10.6,Weak Cold
2013-07-29,WEST PLAINS,-9.13,-91.8347,36.7425,22.8,14.4,Weak Cold
2013-09-09,COTTONWOOD 2 E,11.34,-101.8606,43.9611,30.6,18.3,Weak Hot
2013-04-12,COWEETA EXP STN,9.04,-83.4314,35.0592,25.0,14.4,Weak Hot
2013-05-15,THERMOPOLIS,10.14,-108.2036,43.6483,32.2,7.8,Weak Hot
2013-09-09,HANFORD 1 S,6.03,-119.6369,36.3158,37.2,20.0,Weak Hot
2013-01-18,MILESVILLE 5 NE,13.77,-101.6192,44.5208,11.1,0.6,Weak Hot
2013-01-15,TRONA,-9.37,-117.3908,35.7636,5.0,-6.1,Weak Cold
2013-04-08,UNIVERSITY EXP STN,-36.33,-147.8611,64.8569,-12.8,-23.9,Strong Cold
2013-07-15,MUTUAL,-10.19,-99.17,36.2283,25.0,15.6,Weak Cold
2013-11-23,CARLSBAD CAVERN CITY AP,-18.01,-104.2581,32.3336,1.1,-2.7,Weak Cold
2013-08-19,CHATHAM,-9.16,-79.4103,36.8225,20.6,17.2,Weak Cold
2013-07-05,WADENA 3 S,6.54,-95.1494,46.3939,29.4,20.6,Weak Hot
2013-08-06,FREEPORT 2 NW,2.92,-95.3808,28.9844,34.4,27.8,Weak Hot
2013-10-04,GRAND COTEAU,8.95,-92.0442,30.4183,30.6,22.8,Weak Hot
2013-08-26,GOTHENBURG,14.04,-100.1514,40.9394,37.8,22.2,Strong Hot
2013-04-18,APALACHICOLA AIRPORT,7.01,-85.0206,29.7258,25.6,21.7,Weak Hot
2013-11-23,CONCEPTION,-14.3,-94.6833,40.2394,-3.9,-7.8,Weak Cold
2013-12-12,PRINCETON 1 W,-14.93,-87.5906,38.3567,-6.1,-17.8,Weak Cold
2013-04-04,WILLIAMSPORT,-9.17,-76.9217,41.2433,10.6,-5.5,Weak Cold
2013-01-29,MOLINE QUAD CITY INTL AP,31.23,-90.5233,41.4653,16.7,2.8,Strong Hot
2013-04-19,LOUISA,12.81,-78.0061,38.0422,25.6,18.3,Weak Hot
2013-05-12,NEZPERCE,7.31,-116.243,46.2325,26.7,11.1,Weak Hot
2013-06-27,ELKHART,6.95,-101.8867,37.0058,38.3,22.2,Weak Hot
2013-06-25,DULUTH,8.85,-92.2097,46.8369,30.6,18.3,Weak Hot
2013-11-23,MINOT EXP STN,-19.17,-101.2964,48.1803,-11.1,-27.2,Weak Cold
2013-05-03,PONCE 4 E,-1.85,-66.5253,18.0258,33.3,18.3,Weak Cold
2013-06-25,SALISBURY WICOMICO RGNL AP,6.92,-75.5103,38.3406,33.9,23.3,Weak Hot
2013-09-27,GILLETTE 4SE,-20.32,-105.4919,44.2644,2.8,0.0,Weak Cold
2013-04-27,SANDBERG,14.26,-118.7242,34.7436,28.9,15.0,Weak Hot
2013-05-19,LIBERAL,11.31,-100.9294,37.0222,37.8,15.6,Weak Hot
2013-12-31,HARTFORD 2 W,-34.13,-88.4114,43.3311,-18.9,-25.6,Strong Cold
2013-12-09,BAGDAD,-7.3,-113.1739,34.5972,4.4,-6.7,Weak Cold
2013-03-15,BONNY DAM 2NE,10.01,-102.1192,39.6567,24.4,6.1,Weak Hot
2013-05-14,ROCK SPRINGS AP,9.43,-109.0528,41.5944,27.2,8.3,Weak Hot
2013-11-28,HIGHLANDS,-11.36,-83.1983,35.0567,2.8,-10.6,Weak Cold
2013-01-31,PORTLAND INTL JETPORT,12.74,-70.3003,43.6497,12.2,-1.7,Weak Hot
2013-01-14,EDENTON,11.57,-76.5517,36.0164,22.8,10.6,Weak Hot
2013-04-05,HIGHLANDS,-15.0,-83.1983,35.0567,2.2,-2.2,Weak Cold
2013-06-29,FAIRFIELD,9.48,-112.0944,40.2703,36.7,13.3,Weak Hot
2013-01-13,DAYTON 2SE,18.07,-84.9947,35.4717,19.4,16.1,Weak Hot
2013-12-23,BAYARD,14.96,-79.3683,39.2728,16.1,8.9,Weak Hot
2013-10-04,NEW YORK JFK INTL AP,8.66,-73.7622,40.6386,26.7,16.7,Weak Hot
2013-01-15,POCATELLO 2 NE,-11.05,-112.4086,42.8917,-8.9,-15.6,Weak Cold
2013-12-01,ROOSEVELT 1 WNW,5.34,-111.1508,33.6731,17.2,8.9,Weak Hot
2013-06-03,LIBERAL,-8.44,-100.9294,37.0222,28.3,7.8,Weak Cold
2013-08-29,ASHEVILLE RGNL AP,4.71,-82.5375,35.4319,30.0,21.7,Weak Hot
2013-01-14,GATLINBURG 2 SW,13.38,-83.5369,35.6878,22.2,8.3,Weak Hot
2013-01-30,BARABOO,14.14,-89.7269,43.4583,11.1,-1.1,Weak Hot
2013-12-06,DOUGLAS,24.67,-82.8206,31.4889,28.3,17.2,Strong Hot
2013-07-29,BOWLING GREEN WARREN CO AP,-7.11,-86.4239,36.9647,27.8,12.8,Weak Cold
2013-01-02,OAK CITY,-29.46,-112.3342,39.3758,-11.1,-21.7,Strong Cold
2013-04-19,BROKEN BOW 2 W,-17.37,-99.675,41.4083,-1.1,-7.2,Weak Cold
2013-09-01,BANKHEAD LOCK & DAM,6.07,-87.3572,33.4528,34.4,22.8,Weak Hot
2013-10-25,EVANSVILLE REGIONAL AP,-9.52,-87.5206,38.0442,11.1,-2.1,Weak Cold
2013-03-15,NEW HARMONY,9.87,-113.2897,37.4636,22.8,4.4,Weak Hot
2013-07-03,CONRAD,9.53,-111.9614,48.1794,33.9,19.4,Weak Hot
2013-09-30,VANCOUVER 4 NNE,-10.11,-122.6511,45.6778,13.3,8.9,Weak Cold
2013-07-25,MARION 2 N,-7.83,-83.1333,40.6167,21.1,10.0,Weak Cold
2013-09-12,BATAVIA,8.63,-78.1692,43.0303,31.1,20.0,Weak Hot
2013-09-05,IRON MTN,6.67,-115.1219,34.1472,43.3,29.4,Weak Hot
2013-04-04,BURNET,-16.2,-98.2339,30.7586,9.4,5.6,Weak Cold
2013-09-24,LIVE OAK,3.8,-82.965,30.2889,27.2,23.9,Weak Hot
2013-09-07,ATWOOD,13.75,-101.0422,39.7997,41.1,16.7,Weak Hot
2013-09-29,BEND,-13.93,-121.285,44.0569,9.4,-0.6,Weak Cold
2013-08-25,BOULDER,-10.99,-111.42,37.905,16.7,11.1,Weak Cold
2013-07-02,KING SALMON,-6.81,-156.6294,58.6794,10.6,7.2,Weak Cold
2013-03-13,JONESBORO,11.22,-67.6494,44.6453,10.0,5.0,Weak Hot
2013-07-18,CRESCO 1 NE,7.79,-92.0939,43.3894,33.9,23.3,Weak Hot
2013-12-25,PASO ROBLES MUNI AP,7.34,-120.6283,35.6697,22.8,-1.6,Weak Hot
2013-07-18,LAUREL 3 W,6.17,-76.9003,39.0847,37.2,26.1,Weak Hot
2013-07-05,HEBGEN DAM,5.51,-111.3392,44.8667,28.9,12.2,Weak Hot
2013-04-19,CELO 2 S,11.7,-82.1769,35.8297,21.7,15.6,Weak Hot
2013-11-29,MARIETTA 5SW,-11.28,-97.1642,33.8761,12.8,-6.1,Weak Cold
2013-04-04,PALACIOS MUNI AP,-7.32,-96.2536,28.7247,18.3,9.4,Weak Cold
2013-01-29,NASHVILLE INTL AP,12.83,-86.6892,36.1189,21.1,12.2,Weak Hot
2013-06-25,PLAINVIEW,4.81,-101.7022,34.1892,35.0,22.2,Weak Hot
2013-07-17,POTEET,-10.69,-98.5686,29.0283,24.4,22.8,Weak Cold
2013-04-18,ARKADELPHIA 2 N,7.25,-93.0589,34.1433,31.7,19.4,Weak Hot
2013-05-02,FT DODGE 5NNW,-14.87,-94.2006,42.5836,7.2,-0.6,Weak Cold
2013-08-20,HANCOCK HOUGHTON CO AP,7.32,-88.4889,47.1686,30.6,20.0,Weak Hot
2013-04-10,BROOKINGS 2 NE,-14.59,-96.7686,44.3253,-2.2,-8.3,Weak Cold
2013-05-03,PALESTINE 2 NE,-11.81,-95.6039,31.7831,28.9,5.0,Weak Cold
2013-06-28,OAK CITY,10.15,-112.3342,39.3758,40.0,20.6,Weak Hot
2013-06-06,STEVENS POINT,-10.75,-89.5856,44.5114,13.9,10.0,Weak Cold
2013-12-21,COLUMBIA,12.22,-81.1186,33.9486,27.2,7.8,Weak Hot
2013-12-06,RAPELJE,-25.12,-109.2531,45.9636,-22.2,-28.3,Weak Cold
2013-03-01,SEATTLE TACOMA INTL AP,7.22,-122.3139,47.4444,15.0,11.1,Weak Hot
2013-04-27,BISHOP AP,9.93,-118.3581,37.3711,31.7,5.0,Weak Hot
2013-08-25,GRAND FORKS UNIV NWS,8.75,-97.0981,47.9217,35.6,20.6,Weak Hot
2013-01-29,MANITOWOC,10.58,-87.6522,44.0869,7.8,-1.1,Weak Hot
2013-02-27,MIAMI BEACH,11.62,-80.1336,25.8064,28.3,24.4,Strong Hot
2013-04-19,DUMAS,-9.47,-101.9725,35.8731,6.1,-5.0,Weak Cold
2013-12-15,FALLS VILLAGE,-10.38,-73.3667,41.95,-6.7,-10.6,Weak Cold
2013-11-24,MAYVILLE,-31.93,-97.3514,47.4989,-12.2,-23.9,Strong Cold
2013-11-24,NORRISTOWN,-9.0,-75.3583,40.1197,7.8,-6.7,Weak Cold
2013-03-04,METTER,-11.01,-82.0819,32.3972,16.1,-2.8,Weak Cold
2013-05-05,HARLAN 1ESE,-17.19,-95.2875,41.6403,5.6,0.6,Weak Cold
2013-03-22,JUNCOS 1 SE,4.33,-65.9114,18.2264,31.1,22.2,Weak Hot
2013-10-05,XENIA 6 SSE,12.83,-83.9,39.6167,27.2,18.9,Weak Hot
2013-01-31,PUTNEYVILLE 2 SE DAM,14.66,-79.2803,40.9247,15.6,-2.2,Weak Hot
2013-06-10,PALACIOS MUNI AP,2.97,-96.2536,28.7247,34.4,23.9,Weak Hot
2013-09-01,FOLLETT,18.79,-100.1369,36.4328,39.4,21.1,Strong Hot
2013-10-07,STARTUP 1 E,10.62,-121.7175,47.8664,27.2,8.9,Weak Hot
2013-05-29,BLUEFIELD MERCER CO AP,8.51,-81.2078,37.2958,30.0,16.7,Weak Hot
2013-04-02,WILLOW CITY,-33.81,-100.2911,48.6061,-4.4,-20.6,Strong Cold
2013-02-02,BLUESTONE LAKE,-12.14,-80.8831,37.6411,-5.0,-10.6,Weak Cold
2013-08-31,CARROLLTON,5.82,-93.4886,39.3594,36.7,23.9,Weak Hot
2013-11-23,TORONTO LAKE,-15.4,-95.9333,37.7417,-1.1,-3.3,Weak Cold
2013-05-10,LACROSSE,11.68,-117.8831,46.8167,33.3,7.2,Weak Hot
2013-09-30,BATTLE GROUND,-10.1,-122.5286,45.7717,13.3,9.4,Weak Cold
2013-03-28,CARIBOU MUNI AP,10.87,-68.0172,46.8706,8.9,1.7,Weak Hot
2013-09-11,MOSES LAKE GRANT CO AP,10.91,-119.3192,47.2078,36.7,13.3,Weak Hot
2013-01-18,ROUNDUP,15.87,-108.5397,46.4414,12.2,5.6,Weak Hot
2013-05-05,CLARKSVILLE WWTP,-11.01,-87.3353,36.5472,15.0,6.7,Weak Cold
2013-12-08,HART MTN REFUGE,-41.64,-119.6556,42.5483,-16.1,-28.9,Strong Cold
2013-09-11,FARMLAND 5 NNW,22.17,-85.1483,40.2539,36.1,21.7,Strong Hot
2013-01-11,BOWLING GREEN WWTP,15.0,-83.6111,41.3831,15.0,2.8,Weak Hot
2013-12-16,MIAMI BEACH,4.05,-80.1336,25.8064,28.3,20.6,Weak Hot
2013-04-02,RIDDLE,6.91,-123.3572,42.9506,22.2,11.1,Weak Hot
2013-04-18,DOUGLAS 1 SE,-19.09,-105.3603,42.7467,-5.0,-9.4,Weak Cold
2013-06-29,LIFTON PUMPING STN,9.81,-111.3133,42.1231,32.2,11.1,Weak Hot
2013-10-05,PHILO 3 SW,21.43,-81.9167,39.8386,27.8,17.2,Strong Hot
2013-04-16,LOS ALAMOS,7.44,-106.3214,35.8644,21.7,8.3,Weak Hot
2013-08-17,WHITING FLD NAS,-8.86,-87.0167,30.7167,23.9,21.1,Weak Cold
2013-10-30,FIRST CONNECTICUT LAKE,-8.89,-71.2906,45.09,2.8,-8.9,Weak Cold
2013-12-10,MADERA,-6.51,-120.0378,36.9539,10.0,-5.0,Weak Cold
2013-01-12,ALAMOSA SAN LUIS AP,-30.79,-105.8614,37.4389,-13.3,-35.6,Strong Cold
2013-12-23,LINESVILLE 1 S,13.13,-80.425,41.6458,15.6,1.1,Weak Hot
2013-11-14,RIVERSIDE FIRE STN 3,10.52,-117.3881,33.9511,33.9,10.0,Weak Hot
2013-08-28,CINCINNATI LUNKEN AP,5.37,-84.4189,39.1033,35.0,23.3,Weak Hot
2013-01-22,LAONA 6 SW,-17.18,-88.7594,45.5119,-23.3,-28.9,Weak Cold
2013-10-04,BLOOMINGTON IN UNIV,11.86,-86.5214,39.1742,27.2,18.9,Weak Hot
2013-01-15,LOS ANGELES INTL AP,-5.9,-118.3889,33.9381,13.9,3.3,Weak Cold
2013-05-29,LITCHFIELD PARK,7.32,-112.3631,33.4992,35.6,22.8,Weak Hot
2013-08-30,GOODLAND,8.06,-101.7,39.3669,38.9,17.8,Weak Hot
2013-09-01,TALLAHASSEE,3.76,-84.3289,30.3975,33.3,23.9,Weak Hot
2013-12-06,COLD BAY AP,21.36,-162.7325,55.2208,11.7,8.3,Strong Hot
2013-11-22,EUREKA WFO WOODLEY ISLAND,-8.53,-124.1603,40.8097,18.3,-1.6,Weak Cold
2013-06-30,GREENPORT PWR HOUSE,6.78,-72.3731,41.1019,28.3,21.7,Weak Hot
2013-04-26,MOXEE CITY 10 E,10.8,-120.1678,46.5053,27.2,5.0,Weak Hot
2013-10-06,BAXTER,8.95,-83.3303,36.8583,29.4,16.1,Weak Hot
2013-06-27,FOLLETT,6.82,-100.1369,36.4328,38.3,23.3,Weak Hot
2013-01-11,FLAGSTAFF PULLIAM AP,-10.36,-111.6664,35.1442,-4.4,-18.3,Weak Cold
2013-04-17,SISTERS,-9.42,-121.5486,44.2842,4.4,-6.7,Weak Cold
2013-11-29,MOULTON 2,-11.3,-87.2989,34.4883,6.7,-6.7,Weak Cold
2013-07-18,MADISON DANE RGNL AP,8.25,-89.3453,43.1406,33.3,23.9,Weak Hot
2013-09-03,NIMROD DAM,9.37,-93.1594,34.9553,38.3,21.7,Weak Hot
2013-05-02,FLANDREAU,-14.53,-96.5928,44.0517,5.6,-1.7,Weak Cold
2013-10-02,BROCKTON,10.36,-71.005,42.0478,27.8,10.6,Weak Hot
2013-04-03,MALVERN,-14.04,-92.8364,34.3947,10.6,2.8,Weak Cold
2013-01-24,CIMARRON 4 SW,12.28,-104.9456,36.4661,18.3,3.9,Weak Hot
2013-10-25,JACKSONVILLE 2E,-13.3,-90.2153,39.7353,6.1,-4.4,Weak Cold
2013-08-26,BERGLAND DAM,8.48,-89.5475,46.5869,32.8,17.8,Weak Hot
2013-05-30,PELLSTON RGNL AP,12.43,-84.7928,45.5644,31.1,10.0,Weak Hot
2013-07-06,MADISON 3NNW,4.87,-81.8464,38.1025,30.6,22.2,Weak Hot
2013-09-25,SUMMER LAKE 1 S,-13.4,-120.7897,42.9592,12.2,1.7,Weak Cold
2013-09-02,MISSOULA INTL AP,9.88,-114.0925,46.9208,29.4,15.0,Weak Hot
2013-04-29,HEBER BLACK MESA RS,8.54,-110.5581,34.3925,25.6,3.3,Weak Hot
2013-01-10,GILLETTE 4SE,12.83,-105.4919,44.2644,10.0,1.7,Weak Hot
2013-01-14,TONOPAH,-25.28,-117.0903,38.0511,-6.7,-18.3,Strong Cold
2013-09-25,POCATELLO 2 NE,-14.18,-112.4086,42.8917,11.1,2.8,Weak Cold
2013-12-07,MINCHUMINA,17.75,-152.2817,63.9033,-1.7,-7.2,Weak Hot
2013-01-13,HOT SPRINGS,14.42,-79.8317,37.9969,18.9,3.9,Weak Hot
2013-01-31,WINCHESTER 7 SE,16.97,-78.1167,39.1833,21.7,3.9,Weak Hot
2013-01-31,PRESQUE ISLE,36.05,-68.0089,46.6539,12.2,1.7,Strong Hot
2013-09-04,GRAND LAKE 6 SSW,15.48,-105.8667,40.185,27.8,7.8,Strong Hot
2013-04-23,ORLAND,7.7,-122.1997,39.7458,30.6,15.6,Weak Hot
2013-06-12,WATERVILLE TRTMT PLT,-11.2,-69.6544,44.5272,13.3,11.7,Weak Cold
2013-07-03,WEST PLAINS,-19.13,-91.8347,36.7425,23.3,8.3,Strong Cold
2013-12-06,PINEDALE,-17.42,-109.8592,42.8747,-20.0,-30.0,Weak Cold
2013-12-23,MOXEE CITY 10 E,10.57,-120.1678,46.5053,12.8,-2.8,Weak Hot
2013-09-01,WAPPAPELLO DAM,17.49,-90.2836,36.9231,37.2,23.3,Strong Hot
2013-08-15,SANDUSKY,-6.43,-82.7167,41.45,23.3,11.1,Weak Cold
2013-12-07,MATADOR,-12.75,-100.825,34.0044,-4.4,-13.9,Weak Cold
2013-08-18,TIFTON,-6.83,-83.4767,31.4461,25.6,20.6,Weak Cold
2013-06-02,BARTLESVILLE F P FLD,-19.73,-96.0261,36.7683,20.0,10.0,Strong Cold
2013-08-26,ACADEMY 2NE,9.11,-99.0631,43.4892,36.1,23.9,Weak Hot
2013-01-02,NEPHI,-29.11,-111.8319,39.7122,-12.2,-21.1,Strong Cold
2013-01-12,WIKIEUP,-7.08,-113.6136,34.7061,9.4,-6.1,Weak Cold
2013-03-04,ORANGEBURG 2,-10.66,-80.8733,33.4886,15.6,-4.4,Weak Cold
2013-07-02,HONOLULU INTL AP,-3.18,-157.9294,21.3239,27.8,22.2,Weak Cold
2013-01-29,BOLIVAR 1 NE,40.54,-93.3911,37.6167,23.3,16.1,Strong Hot
2013-10-04,SHOALS 8 S,11.95,-86.7944,38.5528,28.9,17.2,Weak Hot
2013-02-07,ALTUS DAM,11.5,-99.2964,34.8847,22.2,10.6,Weak Hot
2013-03-03,APALACHICOLA AIRPORT,-9.71,-85.0206,29.7258,11.1,2.2,Weak Cold
2013-05-02,TENSLEEP 16SSE,-25.61,-107.3653,43.8111,3.3,-7.2,Strong Cold
2013-09-30,BICKLETON,-13.07,-120.3006,45.9981,9.4,3.9,Weak Cold
2013-01-31,BECKLEY VA HOSPITAL,14.04,-81.1939,37.7647,18.3,-3.3,Weak Hot
2013-11-27,SAVANNAH 6 SW,-24.03,-88.3214,35.1525,4.4,-6.7,Strong Cold
2013-01-25,STEPHENVILLE,14.39,-98.2319,32.2314,27.8,6.1,Weak Hot
2013-01-11,CLEVELAND FLTR PLT,19.03,-84.7981,35.2203,18.9,16.7,Weak Hot
2013-10-27,ROOSEVELT ROADS,2.98,-65.6408,18.255,32.2,27.2,Weak Hot
2013-07-04,MONTGOMERY AP,-8.28,-86.4075,32.2997,25.0,22.2,Weak Cold
2013-04-24,HERINGTON,-28.7,-96.9494,38.6656,1.7,-5.0,Strong Cold
2013-05-20,BRADFORD RGNL AP,21.36,-78.6403,41.8031,28.9,16.1,Strong Hot
2013-05-06,BAMBERG,-9.46,-81.0306,33.3,19.4,11.7,Weak Cold
2013-01-22,PRENTICE #2,-17.39,-90.3017,44.5447,-23.9,-32.8,Weak Cold
2013-08-20,BLUFF,6.09,-109.5575,37.2825,35.0,21.7,Weak Hot
2013-11-23,AUGUSTINE 2E,-16.39,-107.6211,34.075,-2.2,-6.7,Weak Cold
2013-05-05,BATON ROUGE RYAN AP,-21.16,-91.1469,30.5372,18.3,8.3,Strong Cold
2013-04-18,JACKSON EXP STN,19.8,-88.8456,35.6214,31.1,20.0,Strong Hot
2013-04-28,ENNIS,9.9,-111.7111,45.3394,23.9,8.3,Weak Hot
2013-05-16,KENAI MUNI AP,-8.46,-151.2392,60.5797,3.3,1.1,Weak Cold
2013-04-05,THORSBY EXP STN,-13.4,-86.6708,32.9206,10.6,6.7,Weak Cold
2013-05-23,DORSET,9.86,-80.6667,41.6833,30.0,17.2,Weak Hot
2013-04-18,GANADO,-7.65,-109.5661,35.7164,7.2,-8.9,Weak Cold
2013-09-26,LAHONTAN DAM,-12.9,-119.0644,39.4689,15.6,3.3,Weak Cold
2013-01-30,LOUISVILLE INTL AP,16.36,-85.7392,38.1811,21.7,0.6,Weak Hot
2013-10-26,BREVARD,-9.01,-82.7358,35.2283,11.7,-4.4,Weak Cold
2013-11-26,ELMIRA,-10.18,-76.8358,42.0997,0.6,-11.1,Weak Cold
2013-05-15,MT PLEASANT 1 SSW,9.01,-91.5647,40.9486,31.7,18.9,Weak Hot
2013-06-06,NORTH PLATTE RGNL AP,-9.7,-100.6694,41.1214,23.9,2.8,Weak Cold
2013-06-13,ALLARDT,5.12,-84.8744,36.3806,28.9,20.6,Weak Hot
2013-09-08,PEORIA GTR PEORIA AP,9.49,-89.6839,40.6675,31.7,22.2,Weak Hot
2013-04-17,KAYCEE,-15.32,-106.6375,43.7144,-1.1,-6.7,Weak Cold
2013-09-10,CRESTON 2 SW,10.96,-94.3942,41.0372,35.6,18.3,Weak Hot
2013-01-11,OCEANSIDE MARINA,-6.17,-117.395,33.2097,11.7,1.1,Weak Cold
2013-06-28,HOT SPRINGS 1 NNE,8.24,-93.0486,34.5128,37.2,27.2,Weak Hot
2013-07-06,NASHUA 2 NNW,7.94,-71.4736,42.7914,33.9,22.8,Weak Hot
2013-07-29,TOPEKA MUNI AP,-9.93,-95.6261,39.0725,22.2,16.7,Weak Cold
2013-04-30,PALMDALE AP,10.44,-118.0836,34.6294,30.0,16.1,Weak Hot
2013-05-30,RIDGWAY,14.23,-78.7492,41.4197,27.2,18.9,Weak Hot
2013-06-25,SONOMA,-11.07,-122.4622,38.2994,17.8,14.4,Weak Cold
2013-05-06,NATCHEZ,-23.86,-91.3408,31.5889,15.6,6.1,Strong Cold
2013-06-30,SHOSHONE 1 WNW,23.56,-114.4169,42.9383,39.4,21.1,Strong Hot
2013-03-09,SAN DIEGO LINDBERGH FLD,-3.95,-117.1831,32.7336,15.0,11.1,Weak Cold
2013-04-19,NORTON 9SSE,-16.77,-99.8361,39.7411,2.2,-5.6,Weak Cold
2013-04-16,MIDWEST,-14.96,-106.2772,43.4131,-0.6,-8.3,Weak Cold
2013-04-01,JAMESTOWN MUNI AP,-28.53,-98.6692,46.9258,-2.1,-14.9,Strong Cold
2013-05-04,SAC CITY,-18.19,-94.9761,42.4194,3.9,-0.6,Weak Cold
2013-03-01,MYTON,-24.16,-110.0617,40.1942,-2.8,-16.1,Strong Cold
2013-07-16,BELTSVILLE,6.18,-76.9314,39.0303,33.9,25.0,Weak Hot
2013-10-07,WARSAW 6 SW,11.76,-78.2203,42.6856,25.6,13.9,Weak Hot
2013-06-19,MTN DELL DAM,8.17,-111.7222,40.7497,30.6,15.6,Weak Hot
2013-11-25,LINESVILLE 1 S,-25.06,-80.425,41.6458,-5.6,-10.0,Strong Cold
2013-01-13,PHOENIX SKY HARBOR INTL AP,-9.36,-112.0039,33.4278,10.0,-1.1,Weak Cold
2013-03-29,GRANGEVILLE,7.5,-116.1175,45.9414,11.7,5.6,Weak Hot
2013-01-13,JACKSON SPRINGS 5 WNW,12.57,-79.6772,35.1858,22.8,10.6,Weak Hot
2013-10-05,NEWARK WATER WKS,12.66,-82.4128,40.0875,27.2,17.8,Weak Hot
2013-04-19,GARDEN CITY RGNL AP,-10.46,-100.7247,37.9272,17.2,-6.6,Weak Cold
2013-07-12,FT MEADE,7.97,-103.4775,44.41,35.0,23.3,Weak Hot
2013-05-03,MADELINE ISLAND,-15.33,-90.7653,46.7781,0.6,-1.7,Weak Cold
2013-07-05,PRESCOTT 2 NNW,-7.05,-93.3878,33.8203,31.1,14.4,Weak Cold
2013-12-07,GIBSON DAM,-24.61,-112.7536,47.6017,-16.7,-33.9,Weak Cold
2013-08-03,ISABELA SUBSTN,2.95,-67.0525,18.4653,30.0,25.0,Weak Hot
2013-01-13,INDEPENDENCE 1W,12.73,-89.8214,34.6989,21.7,8.9,Weak Hot
2013-09-06,HARDIN,9.82,-107.6092,45.7317,35.0,16.7,Weak Hot
2013-09-27,SUMMER LAKE 1 S,-9.12,-120.7897,42.9592,17.8,-3.3,Weak Cold
2013-04-11,FLANDREAU,-15.19,-96.5928,44.0517,-2.2,-3.9,Weak Cold
2013-06-04,WAUSAU DWTN AP,-11.17,-89.6256,44.9258,13.3,10.0,Weak Cold
2013-06-28,MONTICELLO MUNI AP,5.56,-91.7556,33.6361,35.6,25.0,Weak Hot
2013-01-27,TAYLOR PARK,21.85,-106.6086,38.8183,3.3,-1.7,Weak Hot
2013-09-06,NEW MEADOWS RS,10.83,-116.2933,44.9714,25.6,11.7,Weak Hot
2013-01-25,TAHOKA,8.87,-101.7981,33.1714,25.0,5.6,Weak Hot
2013-06-16,GULKANA AP,11.86,-145.4589,62.1592,30.6,6.1,Weak Hot
2013-05-14,EL CENTRO 2 SSW,8.31,-115.5617,32.7669,40.6,24.4,Weak Hot
2013-07-29,SPRINGFIELD 1 NW,-8.55,-94.9864,44.2469,22.8,7.2,Weak Cold
2013-09-10,CALIFORNIA,8.41,-92.5545,38.6278,35.6,21.1,Weak Hot
2013-11-26,LAKE ARTHUR 10 SW,-16.21,-92.7808,30.0031,6.1,3.3,Weak Cold
2013-07-24,MEDFORD ROGUE VLY AP,8.75,-122.8722,42.3811,37.2,22.2,Weak Hot
2013-11-23,LEVELLAND,-20.3,-102.3758,33.55,-2.8,-5.0,Weak Cold
2013-09-13,OLGA 2 SE,4.19,-122.8064,48.6117,16.7,13.3,Weak Hot
2013-08-04,ELK MTN,6.4,-106.4136,41.6878,28.9,14.4,Weak Hot
2013-05-02,LONG BEACH DAUGHERTY FLD,11.87,-118.1464,33.8117,35.0,13.9,Weak Hot
2013-04-17,LEVAN,-12.47,-111.8653,39.5608,3.9,-6.1,Weak Cold
2013-07-07,OOLITIC PURDUE EX FRM,-10.44,-86.5519,38.8894,19.4,17.8,Weak Cold
2013-08-16,CRESTON 2 SW,-10.89,-94.3942,41.0372,17.8,13.3,Weak Cold
2013-08-06,COTULLA LA SALLE CO AP,5.35,-99.2183,28.4567,42.2,25.0,Weak Hot
2013-10-05,SNOWFLAKE,-9.47,-110.0839,34.5081,16.7,-7.2,Weak Cold
2013-01-15,HAIWEE,-9.96,-117.9528,36.1389,7.8,-11.7,Weak Cold
2013-09-06,COLBY 1SW,11.89,-101.0689,39.3925,38.3,16.1,Weak Hot
2013-08-08,COCHETOPA CREEK,-10.04,-106.7611,38.4461,16.1,8.9,Weak Cold
2013-12-07,SPEARFISH,-23.68,-103.8722,44.5139,-20.6,-27.2,Weak Cold
2013-07-27,IDYLLWILD FIRE DEPT,9.14,-116.7067,33.7572,32.2,20.6,Weak Hot
2013-08-15,MAYSVILLE SEWAGE PLT,-7.44,-83.7872,38.6869,22.8,10.6,Weak Cold
2013-01-28,MUSKOGEE,36.99,-95.3339,35.7781,23.9,19.4,Strong Hot
2013-01-30,WADESBORO,13.46,-80.0772,34.9603,24.4,10.0,Weak Hot
2013-01-12,CHINO VALLEY,-12.44,-112.4567,34.7569,-1.1,-12.8,Weak Cold
2013-09-08,CHANUTE MARTIN JOHNSON AP,18.17,-95.4842,37.6703,37.2,22.8,Strong Hot
2013-06-12,ELKHART,8.9,-101.8867,37.0058,40.6,21.1,Weak Hot
2013-12-10,CEDAR POINT,-29.1,-109.0828,37.7158,-11.7,-21.7,Strong Cold
2013-06-06,ROSEMOUNT RESEARCH OUTREACH C,-10.99,-93.0975,44.7178,15.0,10.0,Weak Cold
2013-05-13,ALPENA WWTP,-11.66,-83.4281,45.0606,4.4,-0.6,Weak Cold
2013-03-15,NEEDLES AP,9.3,-114.6189,34.7675,34.4,14.4,Weak Hot
2013-04-02,LAONA 6 SW,-13.28,-88.7594,45.5119,-2.2,-9.4,Weak Cold
2013-08-02,FAIRBANKS INTL AP,9.23,-147.8761,64.8039,28.3,14.4,Weak Hot
2013-04-16,KIMBALL 2NE,-17.37,-103.6344,41.2453,-2.2,-5.6,Weak Cold
2013-05-02,AGASSIZ REFUGE,-27.2,-95.9817,48.3006,3.3,-5.0,Strong Cold
2013-04-04,HOLLAND 1 E,-8.98,-76.7683,36.6831,14.4,-1.7,Weak Cold
2013-07-28,WRAY,-11.47,-102.2325,40.0714,21.7,12.2,Weak Cold
2013-11-30,BELLE MINA 2 N,-10.31,-86.8819,34.6892,11.7,-6.7,Weak Cold
2013-01-30,COLUMBIA 3 WNW,13.38,-87.0864,35.6381,21.7,12.8,Weak Hot
2013-02-02,SPENCER,-15.81,-81.3583,38.8008,-8.9,-16.1,Weak Cold
2013-05-11,LEAVENWORTH 3 S,12.2,-120.675,47.5586,34.4,11.7,Weak Hot
2013-07-19,PUTNEYVILLE 2 SE DAM,6.14,-79.2803,40.9247,31.1,20.0,Weak Hot
2013-09-02,OWYHEE DAM,8.87,-117.2467,43.65,36.1,16.7,Weak Hot
2013-07-30,TUTTLE CREEK LAKE,-10.56,-96.5994,39.2475,21.7,16.1,Weak Cold
2013-01-13,EUPORA 2 E,30.89,-89.2358,33.5628,24.4,18.3,Strong Hot
2013-05-25,BOONVILLE 4 SSW,-12.99,-75.3697,43.4361,4.4,2.2,Weak Cold
2013-10-26,GALAX RADIO WBRF,-24.31,-80.9139,36.6633,5.0,-6.1,Strong Cold
2013-01-15,ABIQUIU DAM,-13.29,-106.4278,36.2403,-3.9,-21.1,Weak Cold
2013-06-30,WENDOVER AP AWOS,23.95,-114.0358,40.7206,38.9,27.2,Strong Hot
2013-10-23,FT PIERCE,3.9,-80.3508,27.4419,33.3,23.9,Weak Hot
2013-04-30,TIONESTA 2 SE LAKE,11.33,-79.4433,41.4792,17.2,11.7,Weak Hot
2013-11-25,DONORA 1 SW,-27.55,-79.8694,40.1636,-3.3,-10.0,Strong Cold
2013-12-10,LOVELOCK DERBY FLD,-14.75,-118.5692,40.0681,-6.0,-23.2,Weak Cold
2013-01-22,TRAVERSE CITY CHERRY CPTL AP,-11.4,-85.5825,44.7408,-13.8,-17.7,Weak Cold
2013-09-03,SAUCIER EXP FOREST,5.94,-89.055,30.6264,32.8,25.6,Weak Hot
2013-11-25,FT STOCKTON,-22.56,-102.9153,30.9072,-1.1,-3.3,Weak Cold
2013-04-17,PACTOLA DAM,-15.48,-103.4819,44.0622,-5.0,-8.9,Weak Cold
2013-10-04,COSHOCTON AG RSCH STN,10.81,-81.7908,40.3708,26.7,17.2,Weak Hot
2013-02-11,TUMACACORI NM,-12.38,-111.0497,31.5678,13.9,-11.7,Weak Cold
2013-07-02,SMOKEY VALLEY - CARVERS,4.93,-117.1739,38.7839,37.8,17.8,Weak Hot
2013-10-01,GRANTS MILAN MUNI AP,8.66,-107.8992,35.1664,30.0,1.1,Weak Hot
2013-08-04,PALMER 3 ESE,4.5,-121.8514,47.3058,28.3,15.6,Weak Hot
2013-08-18,BROOKGREEN GARDENS,-5.69,-79.0975,33.5214,25.6,20.6,Weak Cold
2013-01-13,CADILLAC,13.75,-85.3967,44.2656,10.6,0.0,Weak Hot
2013-06-30,ANNETTE ISLAND AP,4.09,-131.5786,55.0389,22.8,13.3,Weak Hot
2013-09-17,ABERDEEN EXP STN,8.75,-112.8253,42.9536,28.9,12.2,Weak Hot
2013-11-26,ABERDEEN PHILLIPS FLD,-20.1,-76.1697,39.4717,2.8,-5.6,Strong Cold
2013-09-06,BLACKFOOT FIRE DEPT,9.43,-112.3531,43.1969,30.6,15.6,Weak Hot
2013-08-15,ALEXANDRIA,-9.49,-97.7847,43.6514,20.0,13.3,Weak Cold
2013-07-18,KEWAUNEE,14.17,-87.505,44.4628,33.3,21.1,Strong Hot
2013-09-13,WOODRUFF,9.47,-111.1494,41.525,21.7,10.0,Weak Hot
2013-05-05,LEECH LAKE,-15.75,-94.2228,47.2467,3.3,0.6,Weak Cold
2013-10-05,CHATTANOOGA LOVELL AP,8.19,-85.2014,35.0311,30.6,17.8,Weak Hot
2013-04-19,EVERGLADES,10.99,-81.3897,25.8489,33.3,22.8,Strong Hot
2013-10-26,ROME R B RUSSELL AP,-11.98,-85.1611,34.3478,15.6,-3.2,Weak Cold
2013-07-03,PARK FOREST,-8.81,-87.6803,41.4947,20.0,15.6,Weak Cold
2013-08-30,FORKS 1 E,4.82,-124.3539,47.9558,19.4,15.0,Weak Hot
2013-12-30,CHARLES CITY,-15.19,-92.6717,43.0603,-16.7,-25.0,Weak Cold
2013-06-03,AMITY 4 NE,-10.2,-94.36,39.8914,17.8,8.3,Weak Cold
2013-03-15,FARSON 5N,11.23,-109.4453,42.1867,15.6,-5.6,Weak Hot
2013-05-11,BREDETTE,-8.82,-105.2992,48.5156,15.6,-3.9,Weak Cold
2013-07-02,FLOYDADA,-4.84,-101.3339,33.985,27.8,14.4,Weak Cold
2013-01-03,PRINEVILLE,-14.58,-120.8081,44.3022,-8.3,-19.4,Weak Cold
2013-05-14,TENSLEEP 16SSE,10.78,-107.3653,43.8111,30.0,6.1,Weak Hot
2013-08-28,GAYLORD,7.15,-94.2208,44.5564,33.9,22.2,Weak Hot
2013-10-03,STUTTGART 9 ESE,10.49,-91.4172,34.4744,26.7,20.6,Weak Hot
2013-11-15,OPELIKA,-11.05,-85.4492,32.6592,15.6,-6.1,Weak Cold
2013-06-22,SMITH CTR,7.09,-98.7783,39.7772,37.8,23.3,Weak Hot
2013-06-12,FT SCOTT,7.66,-94.7086,37.8428,34.4,26.1,Weak Hot
2013-05-20,INDIANAPOLIS,9.21,-86.2803,39.7075,28.3,20.6,Weak Hot
2013-06-30,MOORE HAVEN LOCK 1,3.28,-81.0872,26.84,33.9,25.0,Weak Hot
2013-10-05,EFFINGHAM 3SW,24.31,-88.6244,39.1181,31.1,18.9,Strong Hot
2013-08-17,SAND MT SUBSTN,-10.74,-85.9681,34.2878,20.0,16.7,Weak Cold
2013-12-05,ADEL,-26.86,-119.8961,42.1761,-6.7,-20.0,Strong Cold
2013-01-29,ENID,28.57,-97.8747,36.4194,23.3,9.4,Strong Hot
2013-04-04,CAPE MAY 2 NW,-8.05,-74.9358,38.9536,7.8,-1.7,Weak Cold
2013-12-06,HAYDEN,-30.85,-107.2547,40.4928,-15.6,-28.3,Strong Cold
2013-12-22,ONIDA 4 NW,-15.45,-100.1447,44.7317,-16.7,-27.8,Weak Cold
2013-03-12,HAIWEE,9.27,-117.9528,36.1389,27.2,1.1,Weak Hot
2013-11-24,CHENOA,-27.93,-88.7108,40.7394,-4.4,-13.3,Strong Cold
2013-05-30,PHILADELPHIA INTL AP,19.76,-75.2311,39.8683,33.9,21.1,Strong Hot
2013-10-02,AUGUSTA STATE AP,10.92,-69.7972,44.3206,25.0,11.1,Weak Hot
2013-01-10,CHILDERSBURG WTR PL,13.88,-86.3431,33.285,20.6,14.4,Weak Hot
2013-05-20,FLINT BISHOP INTL AP,11.83,-83.7494,42.9667,32.2,17.2,Weak Hot
2013-06-29,KAMAS,11.58,-111.2822,40.6439,36.1,11.1,Weak Hot
2013-02-21,LAJAS SUBSTN,1.91,-67.0722,18.0331,32.2,17.8,Weak Hot
2013-04-04,URBANA WWTP,-9.79,-83.7822,40.0986,6.7,-6.1,Weak Cold
2013-01-15,BROOKGREEN GARDENS,10.3,-79.0975,33.5214,24.4,13.3,Weak Hot
2013-05-05,ANTLERS,-13.25,-95.615,34.2208,13.9,5.6,Weak Cold
2013-11-28,DAYTON-MCD,-22.84,-84.1911,39.7633,-1.7,-7.2,Strong Cold
2013-03-20,BEOWAWE,10.5,-116.475,40.5903,17.8,7.2,Weak Hot
2013-06-10,SUMMERVILLE 4W,4.14,-80.2325,33.0367,30.6,23.3,Weak Hot
2013-07-04,BOSTON LOGAN INTL AP,5.23,-71.0106,42.3606,34.4,23.9,Weak Hot
2013-02-23,MTN LAKE,6.93,-81.5992,27.9378,31.1,15.6,Weak Hot
2013-11-01,ROYAL OAK 2 SSW,11.85,-76.1897,38.7144,21.7,16.7,Weak Hot
2013-10-16,TORRANCE AP,6.8,-118.3411,33.8017,29.4,20.6,Weak Hot
2013-10-25,GRANDFATHER MTN,-24.32,-81.8311,36.0956,1.7,-8.3,Strong Cold
2013-04-10,COLUMBUS 3 NE,-17.51,-97.3278,41.4639,-0.6,-2.8,Weak Cold
2013-01-12,WILMINGTON INTL AP,12.13,-77.8997,34.2675,25.6,13.3,Weak Hot
2013-11-25,PORTLAND SEWAGE PLT,-26.79,-86.5258,36.5875,-0.6,-7.8,Strong Cold
2013-06-08,NASHUA 2 NNW,-12.4,-71.4736,42.7914,12.8,11.1,Weak Cold
2013-05-19,SYRACUSE 1NE,10.98,-101.7417,37.9928,36.7,13.9,Weak Hot
2013-03-27,BARSTOW DAGGETT AP,9.45,-116.7858,34.8536,27.8,17.2,Weak Hot
2013-01-31,COVINGTON,10.13,-83.8436,33.5972,21.7,12.8,Weak Hot
2013-07-15,MIDLAND 4 ENE,-4.52,-102.0258,32.0186,37.2,16.1,Weak Cold
2013-09-03,LIBERTY,5.05,-94.795,30.0592,36.7,23.9,Weak Hot
2013-12-01,KENTFIELD,5.64,-122.5447,37.9567,18.9,5.0,Weak Hot
2013-09-04,OPHEIM 10 N,9.95,-106.38,48.9989,31.1,13.3,Weak Hot
2013-10-06,BAY MINETTE,8.96,-87.7853,30.8839,30.6,22.8,Weak Hot
2013-05-02,BROADUS,-11.73,-105.4072,45.4442,13.9,-6.7,Weak Cold
2013-07-28,PEARSALL,3.94,-99.0897,28.8889,38.9,25.0,Weak Hot
2013-06-28,EL MORRO NATL MON,15.32,-108.3492,35.0381,35.0,14.4,Strong Hot
2013-05-06,SAN FRANCISCO INTL AP,4.67,-122.3647,37.6197,21.1,15.0,Weak Hot
2013-01-22,ORGAN PIPE CACTUS NM,8.27,-112.8003,31.9556,28.9,7.2,Weak Hot
2013-12-07,BEEVILLE 5 NE,-18.41,-97.7061,28.4575,1.1,0.0,Weak Cold
2013-01-29,GATE,15.27,-100.0569,36.85,23.9,-0.6,Weak Hot
2013-06-03,MORRISON,-21.08,-89.9744,41.8039,15.0,6.1,Strong Cold
2013-05-27,ALBEMARLE,-12.38,-80.1994,35.3992,26.7,0.6,Weak Cold
2013-11-21,MINOT EXP STN,-15.87,-101.2964,48.1803,-8.3,-23.9,Weak Cold
2013-03-04,CROSS CITY 1 E,-25.4,-83.1053,29.6333,10.0,-3.3,Strong Cold
2013-06-21,CHANUTE MARTIN JOHNSON AP,6.16,-95.4842,37.6703,32.8,23.9,Weak Hot
2013-07-26,HAMMONTON 1 NE,-9.55,-74.8072,39.6442,21.1,17.8,Weak Cold
2013-05-12,BOWLING GREEN WWTP,-11.38,-83.6111,41.3831,10.6,2.8,Weak Cold
2013-11-10,MAPLE CITY 1E,-9.98,-85.8353,44.855,8.3,-10.6,Weak Cold
2013-07-19,WEST BRANCH 3SE,17.16,-84.2011,44.2542,34.4,23.3,Strong Hot
2013-09-14,VALLECITO DAM,6.65,-107.5822,37.3842,13.3,10.6,Weak Hot
2013-07-23,JUNCTION KIMBLE CO AP,4.5,-99.7664,30.5108,35.0,26.1,Weak Hot
2013-09-13,PICABO,9.0,-114.0667,43.3086,26.1,12.2,Weak Hot
2013-09-03,CRESTED BUTTE,6.9,-106.9769,38.8739,25.6,5.0,Weak Hot
2013-03-13,IDYLLWILD FIRE DEPT,10.28,-116.7067,33.7572,23.9,1.7,Weak Hot
2013-05-18,TIFTON,-8.53,-83.4767,31.4461,30.0,7.8,Weak Cold
2013-06-30,WESTHAMPTN GABRESKI AP,7.87,-72.6322,40.8436,23.9,21.1,Weak Hot
2013-07-02,LIBERTY,-5.74,-94.795,30.0592,31.7,17.2,Weak Cold
2013-01-25,JUNCTION KIMBLE CO AP,12.62,-99.7664,30.5108,29.4,11.1,Weak Hot
2013-08-20,FT COLLINS,7.3,-105.1314,40.6147,36.1,13.3,Weak Hot
2013-05-04,MOBERLY,-31.23,-92.4369,39.4194,3.3,1.7,Strong Cold
2013-12-22,OCONALUFTEE,13.48,-83.3056,35.5158,20.6,9.4,Weak Hot
2013-05-12,MILTON FREEWATER,10.84,-118.4089,45.9428,30.0,20.0,Weak Hot
2013-09-16,AUGUSTA,11.75,-112.3964,47.4931,30.0,16.7,Weak Hot
2013-09-28,PRESCOTT,-9.74,-112.4322,34.5706,21.7,0.6,Weak Cold
2013-07-18,HUDSON COR.FACILITY,12.86,-73.8,42.25,36.1,22.2,Strong Hot
2013-04-18,ENCINAL,9.4,-99.3847,27.9775,36.7,24.4,Weak Hot
2013-01-15,TATUM,-15.71,-103.3611,33.2422,-2.8,-8.3,Weak Cold
2013-04-10,ELKHART,-34.67,-101.8867,37.0058,-0.6,-8.9,Strong Cold
2013-01-13,HART MTN REFUGE,-26.89,-119.6556,42.5483,-6.1,-23.9,Strong Cold
2013-08-19,BOYSEN DAM,5.5,-108.1633,43.4053,36.7,16.1,Weak Hot
2013-09-02,OPHEIM 10 N,12.03,-106.38,48.9989,33.3,9.4,Weak Hot
2013-05-03,BURWELL,-11.22,-99.1433,41.7769,12.2,-3.3,Weak Cold
2013-05-25,TACONY 13 SE,9.05,-104.0567,38.3422,33.9,15.6,Weak Hot
2013-08-17,FAYETTEVILLE WTP,-8.98,-86.5411,35.15,22.8,18.3,Weak Cold
2013-12-10,JEROME,-26.23,-114.5192,42.7325,-9.4,-20.6,Strong Cold
2013-12-06,DOUGLAS 1 SE,-19.09,-105.3603,42.7467,-15.6,-27.8,Weak Cold
2013-06-30,EDGARTOWN,5.31,-70.5181,41.3853,22.2,18.9,Weak Hot
2013-04-29,WICKIUP DAM,7.7,-121.6875,43.6825,16.7,5.6,Weak Hot
2013-05-20,ANGLETON 2 W,10.27,-95.4592,29.1572,32.8,29.4,Weak Hot
2013-11-30,WILKES-BARRE INTL AP,-11.5,-75.7269,41.3336,0.6,-10.5,Weak Cold
2013-11-01,ANCHORAGE INTL AP,12.59,-150.0278,61.1689,6.7,3.9,Weak Hot
2013-04-03,WAPPAPELLO DAM,-23.87,-90.2836,36.9231,7.2,-1.7,Strong Cold
2013-04-10,LEXINGTON BLUEGRASS AP,19.73,-84.6058,38.0408,28.9,16.7,Strong Hot
2013-07-19,DODGEVILLE,7.73,-90.1161,42.9608,33.3,23.3,Weak Hot
2013-01-12,DULCE,-30.62,-107.0,36.9358,-6.7,-32.8,Strong Cold
2013-03-13,CHOTEAU,12.25,-112.1919,47.8206,15.6,6.7,Weak Hot
2013-09-14,KEMMERER 2N,9.57,-110.5328,41.8172,23.3,10.6,Weak Hot
2013-11-30,ALBANY AP,-11.12,-73.8092,42.7431,-0.5,-11.6,Weak Cold
2013-10-26,MONTEAGLE,-23.29,-85.8417,35.2244,8.3,-3.3,Strong Cold
2013-08-18,CORNELIA,-9.73,-83.5286,34.5181,19.4,17.2,Weak Cold
2013-11-26,BLANCO,-15.8,-98.4286,30.1061,5.0,0.6,Weak Cold
2013-08-01,FAIRBANKS INTL AP,10.33,-147.8761,64.8039,29.4,12.2,Weak Hot
2013-05-04,EUREKA 1E,-23.69,-96.2644,37.8253,12.8,1.1,Strong Cold
2013-09-01,ALAMOSA SAN LUIS AP,7.97,-105.8614,37.4389,27.8,10.6,Weak Hot
2013-09-07,SCOTT CITY,9.92,-100.9175,38.4747,37.8,16.1,Weak Hot
2013-04-05,DEQUEEN,-15.04,-94.3481,34.0464,8.9,2.8,Weak Cold
2013-12-23,BLACKSBURG NWSO,15.39,-80.4133,37.2017,17.8,11.1,Weak Hot
2013-07-07,GREENPORT PWR HOUSE,4.75,-72.3731,41.1019,32.2,23.3,Weak Hot
2013-06-02,MCPHERSON,-9.25,-97.6097,38.3772,20.0,7.8,Weak Cold
2013-09-17,FT WORTH NAS,6.98,-97.45,32.7667,35.0,27.2,Weak Hot
2013-03-22,BURKES GARDEN,-16.13,-81.3358,37.0925,-5.6,-11.7,Weak Cold
2013-02-24,CRESCENT CITY,17.07,-81.5161,29.425,29.4,18.9,Strong Hot
2013-05-03,CIRCLE HOT SPRINGS,-17.81,-144.6422,65.4939,-5.0,-11.7,Weak Cold
2013-04-17,GUAM INTL AP,1.79,144.7961,13.4836,32.2,25.0,Weak Hot
2013-08-01,TOOELE,7.97,-112.2975,40.5278,33.9,24.4,Weak Hot
2013-07-28,PAYETTE,8.87,-116.9311,44.0764,36.1,22.8,Weak Hot
2013-05-18,KINGSLEY DAM,7.54,-101.6706,41.2097,30.0,15.6,Weak Hot
2013-01-26,BLACK RIVER PUMPS,12.19,-109.7517,33.4783,15.6,6.1,Weak Hot
2013-11-29,FLEMINGTON 5 NNW,-10.97,-74.8831,40.5631,1.1,-5.0,Weak Cold
2013-01-13,DEMOPOLIS L&D,28.4,-87.88,32.5192,24.4,17.8,Strong Hot
2013-04-28,BURNEY,11.66,-121.6547,40.8803,27.8,4.4,Weak Hot
2013-06-12,CIRCLE HOT SPRINGS,-7.49,-144.6422,65.4939,16.7,-1.7,Weak Cold
2013-03-14,LANDSBURG,5.93,-121.9614,47.3767,12.8,7.2,Weak Hot
2013-01-15,SAVANNAH INTL AP,11.42,-81.21,32.13,27.2,15.0,Weak Hot
2013-07-06,BAY MINETTE,-8.03,-87.7853,30.8839,24.4,21.1,Weak Cold
2013-11-25,OLD FORGE,-30.54,-74.9839,43.7025,-8.9,-20.6,Strong Cold
2013-11-27,FREEPORT 2 NW,-15.7,-95.3808,28.9844,7.2,3.9,Weak Cold
2013-05-28,PONCA CITY MUNI AP,8.82,-97.1019,36.7367,27.2,22.8,Weak Hot
2013-12-22,HAMLET,32.01,-79.6922,34.8872,26.1,19.4,Strong Hot
2013-04-23,FT COLLINS,-9.25,-105.1314,40.6147,1.7,-7.8,Weak Cold
2013-12-07,OPHEIM 10 N,-42.76,-106.38,48.9989,-26.7,-37.2,Strong Cold
2013-07-04,SURRY MTN LAKE,6.52,-72.3128,42.9967,27.2,20.0,Weak Hot
2013-11-08,MINIDOKA DAM,9.36,-113.5003,42.6767,15.6,6.1,Weak Hot
2013-11-28,CALICO ROCK 2 WSW,-24.42,-92.1636,36.1092,2.8,-8.9,Strong Cold
2013-05-27,COLLINS,6.74,-89.5572,31.6419,35.0,14.4,Weak Hot
2013-01-26,LA VERKIN,8.23,-113.2686,37.2008,16.7,5.6,Weak Hot
2013-04-25,TILLAMOOK,8.23,-123.8519,45.4539,22.2,0.0,Weak Hot
2013-12-06,CHATHAM,17.27,-79.4103,36.8225,18.9,13.9,Weak Hot
2013-05-14,CRESCENT CITY,-6.62,-81.5161,29.425,25.6,12.8,Weak Cold
2013-09-07,PLAINVILLE 4WNW,12.09,-99.3808,39.245,39.4,18.9,Weak Hot
2013-04-11,RUSH 1N,-30.72,-104.0939,38.8611,-2.2,-14.4,Strong Cold
2013-12-10,MONTROSE #2,-24.54,-107.8792,38.4858,-8.3,-21.1,Strong Cold
2013-03-16,BRYCE CANYON NP HQRS,10.29,-112.1689,37.6411,17.2,0.0,Weak Hot
2013-11-28,ALAMOSA SAN LUIS AP,-32.11,-105.8614,37.4389,-10.5,-24.3,Strong Cold
2013-09-09,JERSEYVILLE 2 SW,8.68,-90.3431,39.1025,27.8,21.1,Weak Hot
2013-04-10,CEDAR POINT,-8.08,-109.0828,37.7158,4.4,-8.9,Weak Cold
2013-07-30,EVANSVILLE REGIONAL AP,-8.17,-87.5206,38.0442,23.3,20.0,Weak Cold
2013-06-22,STONEVILLE EXP STA,5.22,-90.9108,33.4311,33.9,26.1,Weak Hot
2013-06-26,DARDANELLE,4.49,-93.1675,35.2342,35.0,23.3,Weak Hot
2013-11-29,UNION 8 S,-10.12,-81.6628,34.6053,8.3,-7.8,Weak Cold
2013-05-31,PHILADELPHIA INTL AP,19.76,-75.2311,39.8683,33.9,21.1,Strong Hot
2013-12-01,PISMO BEACH,8.82,-120.6831,35.1597,26.7,9.4,Weak Hot
2013-06-03,MEXICO,-10.96,-91.8861,39.1756,17.8,12.2,Weak Cold
2013-06-17,PALMER JOB CORPS,19.31,-149.0992,61.5889,30.6,15.0,Strong Hot
2013-12-06,PLAINS,-19.1,-102.8281,33.1869,-6.1,-9.4,Weak Cold
2013-09-01,GATLINBURG 2 SW,6.57,-83.5369,35.6878,26.7,19.4,Weak Hot
2013-10-01,POKEGAMA DAM,11.5,-93.5861,47.2508,22.2,13.3,Weak Hot
2013-01-20,SWAN FALLS P H,-25.17,-116.3783,43.2436,-6.7,-17.2,Strong Cold
2013-05-05,LAKE CITY 2 E,-8.33,-82.5942,30.1853,21.7,12.8,Weak Cold
2013-01-10,TIPTON 4S MESONET,10.63,-99.1375,34.4397,11.7,7.2,Weak Hot
2013-04-12,MIAMI BEACH,4.37,-80.1336,25.8064,27.8,25.6,Weak Hot
2013-05-04,WAMEGO 4 W,-13.99,-96.3703,39.2142,11.1,0.0,Weak Cold
2013-01-12,MILLPORT 4 NE,15.04,-80.8561,40.7692,11.7,6.7,Weak Hot
2013-12-07,NORMAN 3SSE,-25.98,-97.4378,35.1808,-3.9,-12.2,Strong Cold
2013-08-08,MENA,4.11,-94.2494,34.5731,33.9,23.3,Weak Hot
2013-12-06,LAFAYETTE 2W,15.87,-85.4336,32.9069,22.8,17.2,Weak Hot
2013-09-08,CONCEPTION,19.44,-94.6833,40.2394,36.1,21.1,Strong Hot
2013-06-23,UNION SPRINGS 9 S,3.9,-85.7464,32.0142,31.1,22.8,Weak Hot
2013-07-19,OLD FORGE,10.25,-74.9839,43.7025,29.4,21.7,Weak Hot
2013-01-31,FIRST CONNECTICUT LAKE,37.64,-71.2906,45.09,11.7,1.1,Strong Hot
2013-06-21,EAGLE,16.51,-141.2036,64.7856,31.7,13.3,Strong Hot
2013-11-26,CRYSTAL SPGS EXP STN,-13.13,-90.3775,31.9461,7.2,0.6,Weak Cold
2013-07-20,ROYAL OAK 2 SSW,6.61,-76.1897,38.7144,34.4,27.2,Weak Hot
2013-12-07,LEWISTOWN MUNI AP,-22.96,-109.4578,47.0492,-18.8,-33.8,Weak Cold
2013-05-02,TRIBUNE 1W,-33.5,-101.7758,38.4661,3.9,-5.6,Strong Cold
2013-01-11,EL CAPITAN DAM,-8.4,-116.8164,32.8839,13.3,-3.3,Weak Cold
2013-11-24,CINCINNATI NORTHERN KY AP,-24.66,-84.6717,39.0431,-1.6,-9.3,Strong Cold
2013-10-04,CHICAGO MIDWAY AP 3SW,11.64,-87.7775,41.7372,24.4,18.9,Weak Hot
2013-09-28,TUSCARORA,-12.72,-116.2225,41.3144,10.6,1.1,Weak Cold
2013-09-03,COTTAGE GROVE 2E,7.28,-123.0275,43.7917,27.8,14.4,Weak Hot
2013-06-28,PASO ROBLES,8.61,-120.6856,35.6278,39.4,17.8,Weak Hot
2013-04-23,TRACY CARBONA,7.77,-121.3467,37.6819,31.1,15.0,Weak Hot
2013-09-05,TERRY,13.18,-105.3022,46.7939,34.4,18.9,Weak Hot
2013-04-24,MEADE,-31.47,-100.345,37.285,1.7,-7.2,Strong Cold
2013-06-08,AUBERRY 2 NW,9.26,-119.5128,37.0919,40.0,22.2,Weak Hot
2013-01-09,MAYAGUEZ CITY,7.75,-67.1378,18.1875,30.6,26.7,Weak Hot
2013-09-05,MARLIN 3 NE,6.8,-96.8581,31.3336,38.9,22.2,Weak Hot
2013-11-24,WEATHERFORD,-16.12,-97.77,32.7483,2.8,-1.1,Weak Cold
2013-10-20,BARTOW,6.88,-81.8433,27.8986,33.3,25.6,Weak Hot
2013-11-24,GULL LAKE DAM,-14.39,-94.3608,46.4119,-11.1,-17.2,Weak Cold
2013-03-02,BIRMINGHAM AP,-15.2,-86.745,33.5656,3.9,0.0,Weak Cold
2013-05-12,FT BIDWELL,9.18,-120.1575,41.8714,27.2,12.8,Weak Hot
2013-03-07,TOCCOA,-12.34,-83.3319,34.5786,5.6,-1.7,Weak Cold
2013-03-03,UNION SPRINGS 9 S,-15.39,-85.7464,32.0142,5.0,0.6,Weak Cold
2013-07-27,WATERLOO MUNI AP,-8.94,-92.4011,42.5544,20.0,10.0,Weak Cold
2013-07-10,SHELBINA,6.36,-92.0467,39.6828,33.9,25.0,Weak Hot
2013-09-03,BUTTONWILLOW,7.43,-119.4731,35.4047,33.3,22.2,Weak Hot
2013-08-29,BROCKTON,-8.52,-71.005,42.0478,18.9,16.1,Weak Cold
2013-09-07,INGOMAR 14 NE,10.98,-107.2078,46.7392,25.0,16.7,Weak Hot
2013-02-08,SAN GABRIEL FIRE DEPT,-9.94,-118.1,34.1061,11.7,4.4,Weak Cold
2013-03-30,AUSTIN #2,8.35,-117.0675,39.4931,17.2,5.0,Weak Hot
2013-05-27,JOHN MARTIN DAM,20.66,-102.9297,38.0633,37.2,17.8,Strong Hot
2013-08-25,BRYCE CANYON AP,-8.64,-112.1456,37.7064,16.7,6.7,Weak Cold
2013-07-19,RICHLAND CTR,8.28,-90.3889,43.3314,33.9,23.3,Weak Hot
2013-10-04,ST JOSEPH 3 N,10.24,-91.2336,31.9497,31.7,22.2,Weak Hot
2013-04-10,CODY,-13.41,-109.045,44.5147,4.4,-13.3,Weak Cold
2013-05-06,NEW ORLEANS AUDUBON,-9.27,-90.1303,29.9167,23.9,10.6,Weak Cold
2013-05-05,CULLOWHEE,-12.63,-83.1747,35.3117,12.2,8.9,Weak Cold
2013-12-03,CHILDRESS MUNI AP,14.41,-100.2831,34.4272,26.7,5.0,Weak Hot
2013-01-13,ITHACA CORNELL UNIV,13.88,-76.4492,42.4492,9.4,3.9,Weak Hot
2013-06-13,NEW BERN CRAVEN CO AP,6.61,-77.0481,35.0678,36.7,21.7,Weak Hot
2013-11-26,WAYNOKA,-16.99,-98.8797,36.5758,-1.1,-7.8,Weak Cold
2013-01-29,NORFOLK NAS,13.62,-76.2833,36.95,22.8,9.4,Weak Hot
2013-01-30,GASTONIA,11.18,-81.1433,35.2656,22.2,3.9,Weak Hot
2013-12-07,BRIDGEWATER,-16.9,-97.5017,43.5525,-14.4,-28.3,Weak Cold
2013-12-22,KNOXVILLE MCGHEE TYSON AP,25.28,-83.9858,35.8181,22.8,12.8,Strong Hot
2013-12-30,CASS LAKE,-15.77,-94.6147,47.3847,-21.7,-32.2,Weak Cold
2013-09-01,ELDON,18.5,-92.5808,38.3486,36.1,23.9,Strong Hot
2013-08-17,ENKA,-7.84,-82.6531,35.5406,21.1,14.4,Weak Cold
2013-09-09,ALBERT LEA 3 SE,9.08,-93.3019,43.6064,25.6,18.9,Weak Hot
2013-06-30,MT WILSON CBS,26.03,-118.0711,34.2308,38.3,25.6,Strong Hot
2013-09-08,GRAVETTE,8.47,-94.4481,36.4261,36.7,17.8,Weak Hot
2013-05-05,MC COOK,-12.32,-100.6203,40.2156,16.7,-3.9,Weak Cold
2013-08-20,KASSLER,6.05,-105.0953,39.49,33.9,20.0,Weak Hot
2013-09-25,MORO,-9.61,-120.7236,45.4825,13.9,6.1,Weak Cold
2013-07-06,MILLINOCKET MUNI AP,7.51,-68.6925,45.6478,30.0,21.7,Weak Hot
2013-02-23,CACHUMA LAKE,-6.34,-119.9817,34.5822,20.0,-1.7,Weak Cold
2013-12-03,ABILENE RGNL AP,14.14,-99.6822,32.4106,28.3,9.4,Weak Hot
2013-09-25,MISSOULA INTL AP,-13.32,-114.0925,46.9208,8.9,6.7,Weak Cold
2013-07-01,CONCHAS DAM,-4.11,-104.1906,35.4072,35.0,15.0,Weak Cold
2013-03-26,SAINT BERNARD,-14.26,-86.8133,34.1736,3.9,-1.1,Weak Cold
2013-04-05,UNIONTOWN 1 NE,-11.46,-79.7192,39.915,13.3,-8.3,Weak Cold
2013-01-29,PALESTINE,32.97,-87.6225,39.0028,17.8,12.8,Strong Hot
2013-12-23,LITCHFIELD,-34.35,-94.5347,45.1278,-21.1,-29.4,Strong Cold
2013-07-11,PENSACOLA FOREST SHERMAN NAS,-5.92,-87.3167,30.35,26.1,22.8,Weak Cold
2013-04-24,KINGMAN,-30.21,-98.1136,37.6361,1.1,-3.9,Strong Cold
2013-12-23,ENKA,11.93,-82.6531,35.5406,10.6,10.0,Weak Hot
2013-05-02,MANTI,-10.99,-111.6306,39.2583,12.2,-6.7,Weak Cold
2013-05-07,RED RIVER,-12.27,-105.4164,36.71,5.0,0.6,Weak Cold
2013-04-01,TOWNER 2 NE,-17.08,-100.3908,48.3706,-3.3,-19.4,Weak Cold
2013-09-06,BILLINGS WTP,8.89,-108.4811,45.7717,35.0,16.1,Weak Hot
2013-05-06,NEVADA WTP,-10.59,-94.3736,37.8394,14.4,6.1,Weak Cold
2013-09-14,MOORHEAD 9 NE,9.42,-105.7517,45.1758,21.1,15.6,Weak Hot
2013-05-01,GARDEN VALLEY,-9.94,-115.9694,44.1011,14.4,-6.7,Weak Cold
2013-09-07,BIG TIMBER,8.68,-109.9503,45.8328,28.9,14.4,Weak Hot
2013-01-14,LONG CREEK,14.82,-83.2678,34.7975,17.8,13.3,Weak Hot
2013-12-02,SHOSHONE 1 WNW,10.79,-114.4169,42.9383,9.4,3.3,Weak Hot
2013-11-24,ERIE INTL AP,-22.08,-80.1825,42.08,-3.8,-6.6,Strong Cold
2013-04-29,WINTERS,19.85,-121.9778,38.5253,33.3,18.9,Strong Hot
2013-07-10,EAST TAWAS,6.95,-83.5036,44.2839,26.7,21.1,Weak Hot
2013-05-15,WARRENTON,-9.37,-82.6222,33.4028,25.0,4.4,Weak Cold
2013-05-28,TUCUMCARI MUNI AP,9.05,-103.6031,35.1822,36.7,13.3,Weak Hot
2013-07-05,TOWANDA 1 S,6.82,-76.4431,41.7511,30.6,21.7,Weak Hot
2013-07-05,SANFORD 2 NNW,6.51,-70.7803,43.4569,32.8,21.1,Weak Hot
2013-04-04,TALOGA,-20.6,-98.9592,36.0381,1.7,0.0,Weak Cold
2013-10-06,TITUSVILLE WTR WKS,25.4,-79.6931,41.63,28.3,15.6,Strong Hot
2013-04-05,MARION JUNCTION 2 NE,-11.53,-87.2314,32.4714,12.8,8.3,Weak Cold
2013-05-06,HARLOWTON,-13.44,-109.8311,46.4328,18.3,-10.6,Weak Cold
2013-10-04,STONEVILLE EXP STA,9.58,-90.9108,33.4311,31.1,20.6,Weak Hot
2013-09-10,CAMDEN 1,7.71,-92.8236,33.59,37.8,18.9,Weak Hot
2013-03-03,WEST PALM BEACH INTL AP,-9.42,-80.0994,26.6847,16.7,8.3,Weak Cold
2013-02-28,WEAVERVILLE,7.48,-122.9331,40.7222,17.2,6.1,Weak Hot
2013-04-22,SUNDANCE,-14.72,-104.3567,44.4122,-2.2,-11.1,Weak Cold
2013-11-13,BUCKHANNON,-13.29,-80.22,38.9803,-0.6,-8.3,Weak Cold
2013-11-18,ADDISON,10.9,-77.2344,42.1014,13.9,9.4,Weak Hot
2013-09-11,MILAN EXP STN,7.48,-88.7267,35.9328,32.8,21.7,Weak Hot
2013-03-04,POPLARVILLE EXP STN,-13.05,-89.5453,30.8408,11.7,-3.9,Weak Cold
2013-12-07,MONTEVIDEO 1 SW,-16.71,-95.7461,44.9342,-20.0,-27.2,Weak Cold
2013-05-20,XENIA 6 SSE,9.34,-83.9,39.6167,28.9,20.0,Weak Hot
2013-07-01,KEMMERER 2N,6.61,-110.5328,41.8172,32.8,13.3,Weak Hot
2013-05-31,ELKINS RANDOLPH CO AP,8.23,-79.8528,38.8853,30.0,11.1,Weak Hot
2013-05-02,CAMP CROOK,-11.76,-103.9744,45.5489,13.9,-7.2,Weak Cold
2013-09-01,BRIDGEPORT SIKORSKY MEM AP,8.74,-73.1289,41.1583,27.8,23.3,Weak Hot
2013-06-27,TRINIDAD,8.08,-104.4869,37.1786,36.7,16.7,Weak Hot
2013-09-11,SOUTH HAVEN,9.93,-86.2833,42.4014,29.4,22.8,Weak Hot
2013-11-22,PATHFINDER DAM,-28.57,-106.8528,42.4717,-6.1,-18.3,Strong Cold
2013-12-31,POINT COMFORT,-13.71,-96.5553,28.6575,5.6,3.9,Weak Cold
2013-11-23,VICTORIA RGNL AP,-14.48,-96.9303,28.8614,8.9,4.4,Weak Cold
2013-03-15,CEDAR CITY MUNI AP,10.37,-113.0944,37.7086,22.8,1.7,Weak Hot
2013-08-17,RUSSELLVILLE NO 2,-7.3,-87.7319,34.51,24.4,18.9,Weak Cold
2013-08-17,BRENHAM,-4.51,-96.3972,30.1592,34.4,18.3,Weak Cold
2013-12-08,JAMESTOWN STATE HOSP,-17.56,-98.685,46.8844,-22.8,-28.3,Weak Cold
2013-03-07,DAYTON 2SE,-13.75,-84.9947,35.4717,2.8,-0.6,Weak Cold
2013-09-27,KAMAS,-15.45,-111.2822,40.6439,8.3,-0.6,Weak Cold
2013-02-23,PARKER RSVR,-9.35,-114.1708,34.2903,17.8,-1.1,Weak Cold
2013-11-23,EL PASO INTL AP,-15.35,-106.3758,31.8111,3.9,-0.5,Weak Cold
2013-04-30,ROCHESTER GTR INTL AP,12.02,-77.6767,43.1167,22.8,14.4,Weak Hot
2013-04-05,CALHOUN RSCH STN,-14.71,-92.3486,32.5133,10.0,5.0,Weak Cold
2013-01-22,ONTARIO KSRV,-31.17,-116.9717,44.0439,-12.8,-22.8,Strong Cold
2013-04-03,MARTINSVILLE 2 SW,-10.6,-86.453,39.4039,7.8,-6.1,Weak Cold
2013-01-16,RANGELY 1 E,-38.38,-108.7717,40.0894,-17.8,-36.7,Strong Cold
2013-08-30,LA HARPE,6.04,-90.9686,40.5839,32.8,22.2,Weak Hot
2013-12-04,SMITHVILLE,11.28,-97.1689,30.0067,28.9,7.8,Weak Hot
2013-01-11,PARK FALLS DNR HQ,12.42,-90.4506,45.9336,5.6,-5.6,Weak Hot
2013-01-14,AFTON,-14.95,-110.9297,42.7292,-16.7,-26.7,Weak Cold
2013-01-13,MT STERLING,17.66,-83.9333,38.0583,18.9,13.3,Weak Hot
2013-07-29,MASON CITY MUNI AP,-7.95,-93.3269,43.1544,23.9,8.3,Weak Cold
2013-01-13,WHITEHALL,13.46,-73.4011,43.5575,5.0,1.7,Weak Hot
2013-08-14,HAWAII VOL NP HQ 54,-4.31,-155.2561,19.4297,18.3,12.8,Weak Cold
2013-09-11,DES MOINES INTL AP,10.16,-93.6531,41.5339,31.7,22.8,Weak Hot
2013-08-18,HAIWEE,12.06,-117.9528,36.1389,41.7,22.8,Strong Hot
2013-08-27,BLOOMER,17.95,-91.4886,45.0956,35.0,23.3,Strong Hot
2013-04-04,MEADE,-17.56,-100.345,37.285,3.9,0.0,Weak Cold
2013-01-15,BYERS 5 ENE,-33.46,-104.1275,39.7403,-11.7,-26.7,Strong Cold
2013-06-19,MIAMI BEACH,3.41,-80.1336,25.8064,31.7,28.3,Weak Hot
2013-12-06,DUMAS,-19.68,-101.9725,35.8731,-10.0,-13.3,Weak Cold
2013-03-30,YAKIMA AIR TERMINAL,8.87,-120.5428,46.5683,22.2,1.7,Weak Hot
2013-05-05,HEADLAND,-22.39,-85.3397,31.3625,16.1,7.2,Strong Cold
2013-01-22,MARSHFIELD EXP FARM,-15.56,-90.1333,44.6411,-20.6,-25.0,Weak Cold
2013-08-16,PONCE 4 E,-5.65,-66.5253,18.0258,35.0,17.2,Weak Cold
2013-05-01,GRAND FORKS UNIV NWS,-16.35,-97.0981,47.9217,3.9,-2.2,Weak Cold
2013-04-05,KEISER,-13.01,-90.0964,35.6872,8.9,0.6,Weak Cold
2013-09-05,ARTHUR,19.43,-101.6914,41.5697,35.6,16.7,Strong Hot
2013-09-26,AFTON,-13.78,-110.9297,42.7292,7.8,0.6,Weak Cold
2013-10-12,FIRST CONNECTICUT LAKE,13.1,-71.2906,45.09,23.9,0.0,Weak Hot
2013-05-06,ASHLAND 3 ENE,-9.65,-85.7789,33.2942,16.7,7.2,Weak Cold
2013-12-06,TATUM,-18.89,-103.3611,33.2422,-6.1,-8.3,Weak Cold
2013-08-17,BLAINE,4.61,-122.7928,48.9775,22.8,16.1,Weak Hot
2013-05-06,CAMILLA 3SE,-9.18,-84.2036,31.1903,22.8,7.2,Weak Cold
2013-09-05,TUSCARORA,9.67,-116.2225,41.3144,28.3,14.4,Weak Hot
2013-06-27,TUCUMCARI MUNI AP,9.45,-103.6031,35.1822,42.8,21.7,Weak Hot
2013-10-04,EVERGLADES,4.44,-81.3897,25.8489,31.7,25.0,Weak Hot
2013-01-15,VALLECITO DAM,-25.5,-107.5822,37.3842,-8.3,-28.9,Strong Cold
2013-05-14,PLAINS SW GA EXP STN,-8.6,-84.3711,32.0467,22.2,6.7,Weak Cold
2013-12-30,EAU CLAIRE RGNL AP,-15.9,-91.4878,44.8664,-18.8,-27.7,Weak Cold
2013-09-11,BRADFORD 4SW RES 5,19.93,-78.7144,41.8975,30.6,18.3,Strong Hot
2013-04-14,WOLF CANYON,9.6,-106.7469,35.9478,13.3,4.4,Weak Hot
2013-08-14,FAIRFIELD RADIO WFIW,-8.38,-88.3264,38.3806,22.2,12.2,Weak Cold
2013-01-13,TWENTYNINE PALMS,-17.86,-116.0369,34.1281,8.3,-6.1,Strong Cold
2013-02-18,WEBSTER DAM,10.22,-99.4192,39.4031,21.1,2.2,Weak Hot
2013-11-22,FALLS CITY BRENNER FLD,-14.51,-95.5919,40.0803,-3.2,-7.7,Weak Cold
2013-10-03,OAK RIDGE ATDD,10.26,-84.2486,36.0028,28.9,18.3,Weak Hot
2013-09-05,PHILLIPS,9.32,-104.4936,41.6264,33.3,15.6,Weak Hot
2013-03-27,ST PETERSBURG AP,-9.25,-82.6261,27.7628,15.0,9.4,Weak Cold
2013-05-03,ROHWER 2 NNE,-9.21,-91.2778,33.8103,18.9,6.7,Weak Cold
2013-09-28,LIFTON PUMPING STN,-14.54,-111.3133,42.1231,6.7,-1.1,Weak Cold
2013-07-28,BLOOMINGTON IN UNIV,-7.63,-86.5214,39.1742,24.4,11.1,Weak Cold
2013-07-24,SEVIERVILLE,4.82,-83.5983,35.9297,30.6,22.8,Weak Hot
2013-01-27,PAYSON,10.67,-111.3447,34.2325,8.3,6.7,Weak Hot
2013-08-26,LIHUE WSO AP 1020.1,2.07,-159.3405,21.9839,30.0,25.6,Weak Hot
2013-04-24,PORTALES,-10.99,-103.3519,34.1742,17.8,-6.1,Weak Cold
2013-04-17,WASHINGTON 2 ESE,8.86,-82.7058,33.7264,28.3,17.8,Weak Hot
2013-09-12,WESTCLIFFE,9.09,-105.4661,38.1311,18.3,12.2,Weak Hot
2013-07-27,WAUSAU DWTN AP,-10.99,-89.6256,44.9258,16.1,8.3,Weak Cold
2013-08-26,RANGELY 1 E,-10.1,-108.7717,40.0894,21.7,15.6,Weak Cold
2013-07-01,BARRE FALLS DAM,6.99,-72.0275,42.4281,28.9,20.0,Weak Hot
2013-05-12,FLANDREAU,-11.02,-96.5928,44.0517,10.0,-3.9,Weak Cold
2013-04-10,LAS VEGAS MUNI AP,-11.39,-105.1419,35.6542,5.6,-11.0,Weak Cold
2013-06-05,GOODLAND,-14.58,-101.7,39.3669,14.4,8.9,Weak Cold
2013-10-02,DEFIANCE,11.83,-84.3847,41.2783,22.8,16.7,Weak Hot
2013-01-27,LINCOLN MUNI AP,13.12,-96.7475,40.8508,6.7,2.2,Weak Hot
2013-06-30,MINCHUMINA,6.33,-152.2817,63.9033,23.9,14.4,Weak Hot
2013-03-12,LAJAS SUBSTN,1.5,-67.0722,18.0331,32.2,17.2,Weak Hot
2013-03-15,FARMINGTON RGNL AP,9.27,-108.2292,36.7436,23.9,2.2,Weak Hot
2013-05-12,FERN RIDGE-VENETA,6.78,-123.3703,44.0494,23.9,12.8,Weak Hot
2013-12-02,IDAHO FALLS FANNING FLD,10.19,-112.0672,43.5164,8.9,-1.6,Weak Hot
2013-07-17,CORPUS CHRISTI,-6.3,-97.5108,27.7839,27.8,23.3,Weak Cold
2013-01-11,BISON 3NW,10.49,-99.235,38.5636,6.1,1.7,Weak Hot
2013-09-06,TIMPANOGOS CAVE,9.4,-111.7075,40.4447,31.7,18.3,Weak Hot
2013-06-27,BURBANK VLY PUMP PLT,4.58,-118.3481,34.1867,34.4,18.9,Weak Hot
2013-09-01,CAPE MAY 2 NW,7.24,-74.9358,38.9536,29.4,23.3,Weak Hot
2013-01-10,FT LEWIS,-18.66,-108.0514,37.2308,-16.7,-23.9,Weak Cold
2013-01-14,BURLEY MUNI AP,-13.37,-113.7661,42.5417,-11.1,-16.1,Weak Cold
2013-11-15,NEWPORT 1 NW,-8.89,-83.2008,35.9833,7.8,-7.2,Weak Cold
2013-08-15,HARTINGTON,-11.83,-97.2608,42.6167,17.8,15.0,Weak Cold
2013-04-29,CANON CITY,11.09,-105.2256,38.46,29.4,3.9,Weak Hot
2013-05-02,BUTTE 5SE,-12.73,-100.5847,47.7947,7.8,-7.2,Weak Cold
2013-06-21,ANAHUAC,-12.31,-94.6342,29.7878,31.7,10.0,Weak Cold
2013-04-30,WALDEN,7.76,-106.2792,40.7442,17.2,1.7,Weak Hot
2013-03-23,GOVERNMENT CAMP,-8.78,-121.7417,45.3014,-3.9,-7.8,Weak Cold
2013-05-06,TOK,-7.77,-143.0372,63.3336,6.1,-8.9,Weak Cold
2013-05-02,COLBY 1SW,-24.92,-101.0689,39.3925,7.8,-2.2,Strong Cold
2013-12-08,ANTELOPE 6 SSW,-21.32,-120.7533,44.8197,-10.6,-25.6,Weak Cold
2013-11-30,FRANKLIN 3 NW,-10.72,-91.5442,29.8233,18.3,-0.6,Weak Cold
2013-03-25,GRAVETTE,-15.35,-94.4481,36.4261,1.1,-5.6,Weak Cold
2013-06-02,NIMROD DAM,-11.8,-93.1594,34.9553,18.9,13.3,Weak Cold
2013-05-31,PORT JERVIS,10.26,-74.6847,41.38,32.8,15.0,Weak Hot
2013-06-27,LAS VEGAS MCCARRAN AP,6.8,-115.1633,36.0719,42.8,28.9,Weak Hot
2013-10-30,WHEATON,-14.32,-96.5042,45.8081,1.1,-1.1,Weak Cold
2013-07-19,BLOOMINGDALE,17.84,-85.9625,42.3842,35.6,25.0,Strong Hot
2013-02-19,NAPA STATE HOSPITAL,-6.38,-122.2647,38.2778,10.6,5.0,Weak Cold
2013-09-02,LOS GATOS,6.64,-121.9592,37.2319,27.8,18.3,Weak Hot
2013-06-18,WALHALLA,4.27,-83.075,34.7544,30.6,20.6,Weak Hot
2013-07-08,TULLY LAKE,7.42,-72.2244,42.6394,33.3,21.7,Weak Hot
2013-01-13,ALTENBERN,-11.95,-108.3794,39.5008,-9.4,-22.2,Weak Cold
2013-09-07,WILLOW CITY,10.11,-100.2911,48.6061,32.2,15.0,Weak Hot
2013-02-28,WENATCHEE PANGBORN AP,5.65,-120.2014,47.3978,5.6,2.8,Weak Hot
2013-09-02,EDISTO BEACH STATE PARK,5.45,-80.2947,32.505,30.6,26.1,Weak Hot
2013-01-14,INDIANA 3 SE,31.12,-79.1186,40.5972,20.6,5.0,Strong Hot
2013-09-11,CONCORD MUNI AP,23.78,-71.5011,43.1953,35.0,19.4,Strong Hot
2013-07-20,BARRE FALLS DAM,14.9,-72.0275,42.4281,33.9,20.6,Strong Hot
2013-05-03,SANTA BARBARA MUNI AP,11.07,-119.8425,34.4258,31.7,10.0,Weak Hot
2013-09-14,ARCO,9.32,-113.2989,43.6356,23.9,13.3,Weak Hot
2013-09-15,YAKIMA AIR TERMINAL,20.95,-120.5428,46.5683,34.4,18.9,Strong Hot
2013-02-01,WHITE LAKE,-17.02,-98.7131,43.7292,-16.1,-22.8,Weak Cold
2013-01-23,WARDENSVILLE RM FARM,-12.9,-78.5811,39.1139,-7.8,-12.2,Weak Cold
2013-09-01,MARATHON,7.48,-103.2717,30.1925,36.7,17.2,Weak Hot
2013-09-09,LOCKWOOD,8.39,-93.9489,37.3908,35.0,22.8,Weak Hot
2013-09-05,YAMPA,14.94,-106.9092,40.1561,28.3,9.4,Strong Hot
2013-05-04,HOMER 1N,-26.51,-93.0625,32.81,15.6,0.6,Strong Cold
2013-01-27,FARMINGTON RGNL AP,10.89,-108.2292,36.7436,11.7,3.3,Weak Hot
2013-11-28,MOBILE,-24.84,-88.2397,30.6794,9.4,-3.8,Strong Cold
2013-08-14,IDYLLWILD FIRE DEPT,6.63,-116.7067,33.7572,35.6,16.1,Weak Hot
2013-01-23,LUPTON 1S,-11.12,-84.0233,44.42,-13.9,-22.2,Weak Cold
2013-06-05,HULETT,-12.5,-104.6028,44.6856,11.7,3.9,Weak Cold
2013-12-23,TOWNER 2 NE,-18.61,-100.3908,48.3706,-19.4,-35.6,Weak Cold
2013-11-28,DONIPHAN,-12.91,-90.8125,36.6206,2.2,-9.4,Weak Cold
2013-10-06,FAYETTEVILLE PWC,8.0,-78.8583,35.0583,31.1,16.7,Weak Hot
2013-01-14,GRAND JUNCTION WALKER FLD,-29.86,-108.54,39.1342,-11.7,-24.4,Strong Cold
2013-06-29,AUGUSTA,10.22,-112.3964,47.4931,33.3,13.9,Weak Hot
2013-05-13,WISCONSIN RAPIDS,-10.15,-89.8056,44.3881,12.2,-3.3,Weak Cold
2013-01-30,ALBION 2 NE,31.7,-78.1664,43.2722,17.8,6.1,Strong Hot
2013-03-16,QUINTER,15.15,-100.2389,39.0669,27.8,3.3,Weak Hot
2013-09-04,WASHINGTON 2 ESE,6.56,-82.7058,33.7264,33.3,22.8,Weak Hot
2013-05-02,TIMBER LAKE,-12.61,-101.0764,45.4283,14.4,-6.1,Weak Cold
2013-08-15,RIPLEY,-7.7,-81.7119,38.8172,22.2,10.0,Weak Cold
2013-12-25,GRINNELL 3 SW,-19.46,-92.7489,41.7203,-6.7,-29.4,Weak Cold
2013-01-14,HERMIT 7 ESE,-16.33,-107.1097,37.7717,-17.8,-32.2,Weak Cold
2013-09-11,SLIPPERY ROCK 1 SSW,21.41,-80.06,41.0558,34.4,20.0,Strong Hot
2013-12-22,MAMMOTH CAVE,13.76,-86.1481,37.1317,22.8,11.7,Weak Hot
2013-01-14,PORTOLA,-29.47,-120.4719,39.8053,-8.9,-22.2,Strong Cold
2013-11-30,CANANDAIGUA 3 S,-23.68,-77.2808,42.8453,-2.2,-11.1,Strong Cold
2013-04-13,SANFORD 2 NNW,-13.16,-70.7803,43.4569,1.1,-1.1,Weak Cold
2013-09-01,LITCHFIELD PARK,7.35,-112.3631,33.4992,39.4,27.8,Weak Hot
2013-02-23,MIAMI BEACH,6.55,-80.1336,25.8064,26.7,23.9,Weak Hot
2013-04-18,LEWISBURG EXP STN,20.94,-86.8086,35.4139,30.6,18.3,Strong Hot
2013-09-11,BLUEFIELD MERCER CO AP,6.74,-81.2078,37.2958,28.3,20.0,Weak Hot
2013-01-29,MARQUETTE,13.22,-87.5483,46.5311,1.1,-1.7,Weak Hot
2013-05-13,AJO,7.16,-112.86,32.3697,36.7,25.0,Weak Hot
2013-09-04,COLORADO SPRINGS MUNI AP,10.81,-104.6883,38.81,30.6,19.4,Weak Hot
2013-04-08,NORTHWAY AP,-13.48,-141.9292,62.9614,-7.7,-16.0,Weak Cold
2013-11-15,SAN DIEGO LINDBERGH FLD,4.46,-117.1831,32.7336,19.4,16.7,Weak Hot
2013-01-28,ABILENE RGNL AP,27.55,-99.6822,32.4106,26.7,14.4,Strong Hot
2013-04-02,KAINALIU 73.2,-3.62,-155.9258,19.5336,25.6,12.2,Weak Cold
2013-09-26,SNAKE RIVER,-15.75,-110.6658,44.1333,3.9,-2.8,Weak Cold
2013-05-02,LEWISTOWN MUNI AP,-9.01,-109.4578,47.0492,17.2,-6.0,Weak Cold
2013-11-20,BEAVER CITY,-17.06,-99.8278,40.1306,-4.4,-9.4,Weak Cold
2013-01-25,BALMORHEA,10.92,-103.7403,30.9844,27.2,7.8,Weak Hot
2013-06-15,DRIGGS,-6.62,-111.1125,43.7306,21.7,-1.7,Weak Cold
2013-09-19,QUINCY RGNL AP,9.28,-91.1919,39.9369,34.4,20.0,Weak Hot
2013-04-04,LEWISTOWN,-8.73,-77.5692,40.5864,6.7,-5.0,Weak Cold
2013-10-04,OGALLALA,8.52,-101.7206,41.1275,11.7,10.0,Weak Hot
2013-04-18,CEDAR POINT,-13.45,-109.0828,37.7158,0.6,-7.2,Weak Cold
2013-05-02,WHEATON,-15.33,-96.5042,45.8081,6.1,-2.2,Weak Cold
2013-07-12,MEXICAN HAT,-10.73,-109.8675,37.1497,26.1,20.6,Weak Cold
2013-05-31,RICHMOND INTL AP,7.9,-77.3203,37.505,33.3,19.4,Weak Hot
2013-05-14,RIVER FALLS,-10.26,-92.6122,44.8542,18.9,-2.8,Weak Cold
2013-07-29,ELDORA,-8.01,-93.0989,42.3619,20.6,8.9,Weak Cold
2013-09-01,BURLEY MUNI AP,9.0,-113.7661,42.5417,33.3,10.6,Weak Hot
2013-11-28,PALESTINE,-11.58,-87.6225,39.0028,4.4,-9.4,Weak Cold
2013-04-22,FREEHOLD-MARLBORO,-8.21,-74.2511,40.3142,12.2,-3.9,Weak Cold
2013-11-21,JORDAN,-20.09,-106.9103,47.3144,-8.3,-27.8,Weak Cold
2013-10-04,FT MADISON,24.8,-91.3339,40.6222,31.1,18.9,Strong Hot
2013-05-15,PALMDALE,8.05,-118.0939,34.5883,30.6,18.9,Weak Hot
2013-07-26,EL DORADO S AR RGNL AP,-7.73,-92.8142,33.2208,26.1,20.0,Weak Cold
2013-05-05,MCALLEN,-9.12,-98.2511,26.1917,27.2,12.2,Weak Cold
2013-01-15,GRANTS MILAN MUNI AP,-12.04,-107.8992,35.1664,-3.9,-22.8,Weak Cold
2013-10-23,RANTOUL,-12.32,-88.1594,40.3131,6.7,-1.1,Weak Cold
2013-04-03,PAOLI,-10.78,-86.4858,38.5556,10.0,-5.6,Weak Cold
2013-04-28,STONY GORGE RSVR,10.07,-122.5342,39.5861,31.1,8.9,Weak Hot
2013-03-03,BATESVILLE 2 SW,-25.32,-89.9806,34.3061,3.3,-6.7,Strong Cold
2013-05-02,LEROY 9 WSW,-35.38,-103.0822,40.4897,-1.1,-7.2,Strong Cold
2013-11-26,WOODSTOCK 2 NE,-11.44,-78.4678,38.8969,4.4,-10.6,Weak Cold
2013-02-01,KEOSAUQUA,-15.03,-91.9683,40.7275,-11.1,-18.9,Weak Cold
2013-04-11,BURR OAK 1N,-18.88,-98.3036,39.8775,-1.1,-5.0,Weak Cold
2013-06-13,DULCE,6.88,-107.0,36.9358,34.4,2.8,Weak Hot
2013-05-05,LONG CREEK,-13.98,-83.2678,34.7975,10.6,7.8,Weak Cold
2013-07-12,CAPE MAY 2 NW,-6.82,-74.9358,38.9536,22.2,19.4,Weak Cold
2013-04-18,TWIN BRIDGES,-9.77,-112.3261,45.5472,11.7,-12.2,Weak Cold
2013-11-23,FLINT BISHOP INTL AP,-10.34,-83.7494,42.9667,-2.1,-8.2,Weak Cold
2013-11-26,JEANERETTE 5 NW,-11.12,-91.7108,29.9592,10.6,5.0,Weak Cold
2013-07-18,KENOSHA,8.66,-87.8156,42.5608,35.0,25.6,Weak Hot
2013-02-02,TERRA ALTA #1,-14.55,-79.5469,39.4467,-12.2,-16.1,Weak Cold
2013-05-01,MORAN 5WNW,-10.67,-110.5889,43.8567,3.9,-5.6,Weak Cold
2013-12-10,MORRIS 1 NW,-12.74,-88.4336,41.3708,-5.0,-18.9,Weak Cold
2013-09-01,DONNER MEM SP,11.11,-120.2331,39.3239,25.6,12.8,Weak Hot
2013-10-25,WINFIELD LOCKS,-13.0,-81.9153,38.5278,7.2,0.6,Weak Cold
2013-04-03,YATES CTR,-13.7,-95.7292,37.8786,6.7,1.1,Weak Cold
2013-09-01,DAINGERFIELD 9 S,13.01,-94.7225,32.9203,38.9,25.0,Strong Hot
2013-03-07,GALAX RADIO WBRF,-13.93,-80.9139,36.6633,-1.1,-3.9,Weak Cold
2013-01-14,MARION 2 N,17.19,-83.1333,40.6167,17.8,-4.4,Weak Hot
2013-09-11,WYNNE,7.04,-90.7964,35.2547,35.6,23.3,Weak Hot
2013-01-21,PONCE 4 E,-5.1,-66.5253,18.0258,31.7,13.9,Weak Cold
2013-10-04,CROSSETT 2 SSE,10.78,-91.9481,33.1111,28.9,20.0,Weak Hot
2013-01-12,FAYETTEVILLE WTP,19.79,-86.5411,35.15,20.0,17.2,Weak Hot
2013-09-27,SEARCHLIGHT,-11.33,-114.9217,35.4661,20.0,10.6,Weak Cold
2013-10-04,JACKSBORO,19.21,-98.1561,33.2206,34.4,22.2,Strong Hot
2013-07-01,BEAUMONT RSCH CTR,-4.18,-94.2928,30.0689,35.0,18.9,Weak Cold
2013-12-14,ST JAMES 4SSW BEAVER,-11.22,-85.5464,45.6911,-6.7,-16.7,Weak Cold
2013-04-04,LURAY 5 E,-10.27,-78.3728,38.6661,10.0,-6.1,Weak Cold
2013-01-29,PAWNEE CITY,15.27,-96.1558,40.1217,17.2,0.6,Weak Hot
2013-11-24,EMPORIA MUNI AP,-27.0,-96.1897,38.3306,-2.7,-10.5,Strong Cold
2013-08-18,CLARKS HILL 1 W,-11.77,-82.1897,33.6631,21.1,18.3,Weak Cold
2013-05-14,STROUDSBURG,-9.88,-75.1906,41.0125,15.6,-1.7,Weak Cold
2013-09-05,KENMARE 1 WSW,8.83,-102.0975,48.6692,31.7,14.4,Weak Hot
2013-09-07,YAMPA,14.44,-106.9092,40.1561,27.8,9.4,Strong Hot
2013-06-18,DOS BOCAS,1.96,-66.6667,18.3361,31.7,22.8,Weak Hot
2013-01-13,WAYNESBORO 2 S,13.12,-82.0061,33.0725,26.7,12.2,Weak Hot
2013-03-30,GUAM INTL AP,3.38,144.7961,13.4836,31.7,26.1,Weak Hot
2013-07-19,ANCHORAGE INTL AP,5.0,-150.0278,61.1689,22.2,16.1,Weak Hot
2013-09-01,ECHO DAM,9.4,-111.435,40.9656,28.3,13.3,Weak Hot
2013-06-13,BATESVILLE LVSTK,6.52,-91.7944,35.8306,32.8,24.4,Weak Hot
2013-05-06,MC COOK,-11.72,-100.6203,40.2156,18.9,-3.3,Weak Cold
2013-11-27,ROLLA MISSOURI S&T,-12.01,-91.7758,37.9572,5.6,-9.4,Weak Cold
2013-09-30,BANDON 2 NNE,-5.67,-124.4019,43.1497,13.9,10.0,Weak Cold
2013-09-09,MARSHALL,9.03,-93.2225,39.1342,33.3,22.8,Weak Hot
2013-04-03,AUSTIN BERGSTROM AP,-12.86,-97.68,30.1831,13.9,10.0,Weak Cold
2013-11-15,BENT CREEK,-10.16,-82.5967,35.5044,13.9,-8.9,Weak Cold
2013-05-20,TEXARKANA WEBB FLD,6.0,-94.0075,33.4536,31.1,22.8,Weak Hot
2013-10-03,PRADE RCH,10.17,-99.7908,29.9167,30.0,20.6,Weak Hot
2013-04-19,MEEKER 5 W,-14.89,-96.9772,35.505,7.8,0.0,Weak Cold
2013-01-12,WICKENBURG,-18.22,-112.7403,33.9792,8.3,-7.8,Strong Cold
2013-12-18,CHEYENNE,11.79,-104.8061,41.1519,15.6,2.2,Weak Hot
2013-06-24,KANOPOLIS LAKE,7.13,-97.9597,38.6078,33.3,23.3,Weak Hot
2013-07-02,MT ADAMS RS,7.69,-121.5403,45.9997,35.0,16.7,Weak Hot
2013-10-28,DAYTON-MCD,-10.65,-84.1911,39.7633,13.3,-3.3,Weak Cold
2013-05-15,FULTON L&D #13,10.64,-90.1544,41.8978,32.2,16.1,Weak Hot
2013-05-04,WAYNESBORO 2 S,-9.12,-82.0061,33.0725,19.4,11.7,Weak Cold
2013-08-12,PALMER JOB CORPS,4.86,-149.0992,61.5889,21.7,13.9,Weak Hot
2013-01-25,VISTA 2 NNE,6.53,-117.2269,33.2294,21.1,13.3,Weak Hot
2013-04-05,LIBERTY,-12.59,-94.795,30.0592,13.3,6.7,Weak Cold
2013-09-01,MORRILTON,8.98,-92.7672,35.1581,38.9,21.1,Weak Hot
2013-10-25,TOPEKA FORBES FLD,-10.72,-95.6639,38.9503,14.4,-3.8,Weak Cold
2013-08-26,POSTVILLE,7.66,-91.5581,43.09,31.1,22.2,Weak Hot
2013-09-04,ALTENBERN,20.67,-108.3794,39.5008,34.4,16.7,Strong Hot
2013-08-29,BOISE AIR TERMINAL,7.64,-116.2406,43.5667,35.6,22.2,Weak Hot
2013-05-06,BOWIE,-13.04,-97.8472,33.5511,20.0,2.8,Weak Cold
2013-03-03,MT PLEASANT 1N,-14.94,-87.2019,35.5572,1.1,-4.4,Weak Cold
2013-09-09,SUPERIOR 4E,11.6,-97.9842,40.0314,38.3,19.4,Weak Hot
2013-03-17,RED LAKE FALLS,-18.62,-96.2658,47.8881,-12.8,-28.3,Weak Cold
2013-05-03,LONE ROCK TRI CO AP,-12.61,-90.1814,43.2119,8.9,1.7,Weak Cold
2013-09-04,SAINT MARIES,7.85,-116.5789,47.3164,28.3,13.9,Weak Hot
2013-12-21,SALINA 3 W,13.77,-79.5458,40.51,13.9,8.9,Weak Hot
2013-07-09,CLAYTON MUNI AIR PK,4.42,-103.1539,36.4486,36.1,20.6,Weak Hot
2013-08-24,HURON RGNL AP,7.96,-98.2231,44.3981,36.1,22.8,Weak Hot
2013-06-28,CHILDRESS MUNI AP,5.75,-100.2831,34.4272,40.0,25.0,Weak Hot
2013-06-29,LAKE ARTHUR 10 SW,4.48,-92.7808,30.0031,36.7,23.3,Weak Hot
2013-04-13,GUAM INTL AP,5.11,144.7961,13.4836,32.2,26.7,Strong Hot
2013-04-09,BOYSEN DAM,-25.18,-108.1633,43.4053,0.6,-9.4,Strong Cold
2013-10-04,PAWHUSKA,12.21,-96.3472,36.6692,30.6,21.1,Weak Hot
2013-01-15,PAONIA 1 SW,-30.43,-107.6236,38.8522,-10.6,-25.6,Strong Cold
2013-11-27,MONTAGUE 4 NW,-10.01,-86.4175,43.4614,-2.2,-6.1,Weak Cold
2013-05-04,SAXON 1WSW,-18.49,-90.4372,46.4858,-0.6,-2.8,Weak Cold
2013-09-14,AUGUSTA,26.98,-112.3964,47.4931,33.9,21.1,Strong Hot
2013-06-02,MC LEOD 3 E,-13.74,-97.2392,46.3911,12.2,4.4,Weak Cold
2013-11-28,PINE BLUFF GRIDER FLD,-11.09,-91.9347,34.175,10.0,-4.9,Weak Cold
2013-10-26,BATESVILLE LVSTK,-12.31,-91.7944,35.8306,11.1,-1.1,Weak Cold
2013-05-02,CONWAY,-10.17,-79.0558,33.8314,17.8,15.6,Weak Cold
2013-05-17,ANCHORAGE MERRILL FLD,-10.37,-149.855,61.2169,3.9,0.0,Weak Cold
2013-12-04,DUTCH HARBOR,7.46,-166.5433,53.895,9.4,6.7,Weak Hot
2013-12-08,LIVERMORE,-8.29,-121.7692,37.6922,5.6,-2.2,Weak Cold
2013-12-12,SHOALS 8 S,-15.95,-86.7944,38.5528,1.1,-20.0,Weak Cold
2013-08-01,BARROW POST ROGERS AP,7.17,-156.7814,71.2833,16.1,8.3,Weak Hot
2013-07-25,BISHOP AP,7.64,-118.3581,37.3711,37.8,21.1,Weak Hot
2013-05-04,BARTLESVILLE F P FLD,-16.16,-96.0261,36.7683,10.6,3.3,Weak Cold
2013-04-24,DALHART MUNI AP,-11.99,-102.55,36.0167,17.2,-8.2,Weak Cold
2013-04-23,BEOWAWE,-8.39,-116.475,40.5903,13.9,-9.4,Weak Cold
2013-05-05,ESTHERVILLE 4E,-16.65,-94.7472,43.4036,4.4,0.0,Weak Cold
2013-12-01,SACRAMENTO 5 ESE,7.12,-121.4169,38.5556,20.0,5.0,Weak Hot
2013-07-30,IOWA CITY,-9.78,-91.505,41.6092,24.4,8.9,Weak Cold
2013-10-05,SOUTH BEND MICHIANA RGNL AP,12.78,-86.3164,41.7072,26.1,18.9,Weak Hot
2013-02-27,OAK CITY,-12.37,-112.3342,39.3758,-5.0,-8.9,Weak Cold
2013-03-06,TAPOCO,-17.75,-83.9389,35.4478,-1.1,-3.3,Weak Cold
2013-06-17,CENTER,4.56,-94.1642,31.8075,33.3,24.4,Weak Hot
2013-05-02,DINOSAUR QUARRY AREA,-6.84,-109.3045,40.4378,15.6,-1.7,Weak Cold
2013-01-25,ASHEBORO 2 W,-14.32,-79.8378,35.7044,-4.4,-7.2,Weak Cold
2013-11-25,BECKLEY VA HOSPITAL,-28.83,-81.1939,37.7647,-5.6,-12.2,Strong Cold
2013-01-16,MIDVILLE EXP STN,10.67,-82.2156,32.8753,25.0,13.3,Weak Hot
2013-08-25,JAMESTOWN STATE HOSP,7.9,-98.685,46.8844,35.6,21.1,Weak Hot
2013-06-12,LOCKWOOD,5.87,-93.9489,37.3908,33.9,23.3,Weak Hot
2013-08-26,HAWKINSVILLE,-5.46,-83.4681,32.2842,30.0,15.6,Weak Cold
2013-12-24,DUBUQUE L&D 11,-37.27,-90.6461,42.54,-16.7,-28.3,Strong Cold
2013-12-04,TAHOKA,9.92,-101.7981,33.1714,23.3,7.8,Weak Hot
2013-06-27,SAN LUIS OBISPO POLY U,5.17,-120.6619,35.3056,32.8,15.6,Weak Hot
2013-12-07,WOOD,-38.68,-100.4794,43.4978,-18.3,-28.3,Strong Cold
2013-04-02,RED OAK,-11.94,-95.2419,41.0036,5.6,-7.8,Weak Cold
2013-06-24,SPRINGERVILLE,8.84,-109.275,34.1311,29.4,15.0,Weak Hot
2013-11-01,GALAX RADIO WBRF,13.15,-80.9139,36.6633,17.2,13.3,Weak Hot
2013-03-20,FULTON L&D #13,-12.17,-90.1544,41.8978,-5.0,-11.7,Weak Cold
2013-07-28,POKEGAMA DAM,-12.61,-93.5861,47.2508,13.9,7.2,Weak Cold
2013-12-06,SPANISH FORK PWR HOUSE,-25.46,-111.6044,40.0797,-8.9,-18.9,Strong Cold
2013-05-03,MOORE HAVEN LOCK 1,-7.03,-81.0872,26.84,23.9,20.0,Weak Cold
2013-06-15,DEER LODGE 3 W,-6.98,-112.7975,46.3911,25.0,-2.8,Weak Cold
2013-03-02,HIALEAH,-8.16,-80.2858,25.8175,18.3,12.8,Weak Cold
2013-04-09,POLSON,-8.4,-114.1906,47.675,6.1,-7.2,Weak Cold
2013-05-13,CINCINNATI NORTHERN KY AP,-10.35,-84.6717,39.0431,17.2,1.1,Weak Cold
2013-12-22,WILMINGTON PORTER RES,28.69,-75.5414,39.7739,19.4,13.9,Strong Hot
2013-10-05,MILLEDGEVILLE,7.17,-83.2497,33.0831,32.2,15.6,Weak Hot
2013-06-09,DESERT NWR,7.07,-115.36,36.4381,42.8,21.7,Weak Hot
2013-09-02,INDIO FIRE STN,8.37,-116.2153,33.7086,41.7,30.6,Weak Hot
2013-10-04,MILLVILLE MUNI AP,10.19,-75.0667,39.3667,29.4,13.3,Weak Hot
2013-09-02,ARROWROCK DAM,7.37,-115.9236,43.5936,34.4,15.6,Weak Hot
2013-04-20,GLENWOOD 2 WNW,-13.1,-95.4392,45.6583,3.9,-12.8,Weak Cold
2013-09-09,MONTICELLO MUNI AP,7.34,-91.7556,33.6361,37.2,24.4,Weak Hot
2013-10-24,BEACONSFIELD,-15.17,-94.0475,40.8236,2.8,-2.2,Weak Cold
2013-11-24,ALTOONA BLAIR CO AP,-24.16,-78.3203,40.2964,-3.8,-9.3,Strong Cold
2013-12-07,DAYTONA BEACH INTL AP,6.74,-81.0483,29.1828,28.3,18.3,Weak Hot
2013-01-12,ALMA BACON CO AP,10.84,-82.5067,31.5358,27.2,10.6,Weak Hot
2013-05-03,HOWARD,-28.35,-97.5242,44.0122,6.1,-5.0,Strong Cold
2013-07-22,COALINGA,7.27,-120.3606,36.1356,42.8,26.1,Weak Hot
2013-08-27,EAU CLAIRE RGNL AP,17.34,-91.4878,44.8664,35.6,22.8,Strong Hot
2013-11-24,CALIFORNIA,-28.76,-92.5545,38.6278,-1.1,-12.2,Strong Cold
2013-11-01,DELAND 1 SSE,6.88,-81.3106,29.0181,31.7,19.4,Weak Hot
2013-05-30,COTULLA LA SALLE CO AP,6.27,-99.2183,28.4567,32.2,26.1,Weak Hot
2013-08-17,FORKS 1 E,4.22,-124.3539,47.9558,22.2,14.4,Weak Hot
2013-04-19,MADILL,-12.16,-96.7708,34.0919,11.7,1.7,Weak Cold
2013-01-12,CHARLESTON YEAGER AP,16.41,-81.59,38.3794,22.2,7.8,Weak Hot
2013-04-16,CALHOUN RSCH STN,6.39,-92.3486,32.5133,31.1,17.2,Weak Hot
2013-05-13,CACHUMA LAKE,13.67,-119.9817,34.5822,39.4,8.3,Weak Hot
2013-05-03,CAMBRIDGE 5ESE,-12.43,-93.1264,45.5506,7.8,-1.7,Weak Cold
2013-12-07,FT GIBSON DAM,-15.1,-95.2333,35.8667,-4.4,-9.4,Weak Cold
2013-05-25,HUGOTON,8.75,-101.34,37.1639,33.3,18.9,Weak Hot
2013-04-07,KAHULUI AP,3.07,-156.4286,20.8997,31.1,17.8,Weak Hot
2013-08-16,PICKSTOWN,-10.41,-98.5325,43.0689,20.0,16.7,Weak Cold
2013-09-10,HOLCOMBE,9.68,-91.1269,45.2236,31.1,18.3,Weak Hot
2013-07-01,OLNEY 2S,-8.34,-88.0817,38.7003,22.8,16.1,Weak Cold
2013-08-07,MONTICELLO MUNI AP,5.04,-91.7556,33.6361,38.3,25.6,Weak Hot
2013-11-24,MONROE RGNL AP,-13.99,-92.0406,32.5156,5.6,-1.0,Weak Cold
2013-09-12,BRYCE CANYON NP HQRS,-9.39,-112.1689,37.6411,11.7,8.9,Weak Cold
2013-10-24,MORA,-11.81,-93.3147,45.8775,2.2,-0.6,Weak Cold
2013-05-20,MANSFIELD 5 W,9.58,-82.6167,40.7667,29.4,17.8,Weak Hot
2013-04-16,GUAM INTL AP,2.39,144.7961,13.4836,32.8,25.0,Weak Hot
2013-12-05,STEAMBOAT SPRINGS,-28.38,-106.8233,40.4883,-15.0,-30.0,Strong Cold
2013-09-07,WANSHIP DAM,10.52,-111.4078,40.7908,31.7,13.9,Weak Hot
2013-12-08,MORO,-34.02,-120.7236,45.4825,-11.7,-22.2,Strong Cold
2013-04-10,GILLETTE 4SE,-10.32,-105.4919,44.2644,0.0,-11.1,Weak Cold
2013-12-09,BLACKFOOT FIRE DEPT,-31.52,-112.3531,43.1969,-13.3,-26.1,Strong Cold
2013-11-28,JACKSONVILLE NAS,-9.51,-81.6667,30.2333,13.9,1.7,Weak Cold
2013-06-29,AUSTIN-CAMP MABRY,8.91,-97.7603,30.3208,42.2,23.9,Weak Hot
2013-08-27,TITUSVILLE WTR WKS,6.78,-79.6931,41.63,28.9,18.9,Weak Hot
2013-06-11,ANGLETON 2 W,4.69,-95.4592,29.1572,35.6,26.7,Weak Hot
2013-12-05,JENNINGS,14.58,-92.6642,30.2003,25.6,20.6,Weak Hot
2013-06-02,GREAT BEND,-10.76,-98.7803,38.3758,22.8,6.7,Weak Cold
2013-08-27,WIBAUX 2 E,8.06,-104.1567,46.9878,30.6,18.9,Weak Hot
2013-04-05,MILLERSBURG,-11.06,-81.9197,40.5375,12.2,-8.3,Weak Cold
2013-12-24,MONTEVIDEO 1 SW,-34.4,-95.7461,44.9342,-21.1,-29.4,Strong Cold
2013-11-24,LONDON STATE FISH HATCHERY,-11.57,-83.5097,39.8972,1.1,-11.1,Weak Cold
2013-08-09,STAUNTON WATER TRMTMT PLT,5.36,-79.0844,38.1692,27.2,21.1,Weak Hot
2013-05-02,LA CROSSE MUNI AP,-17.22,-91.2528,43.8789,4.4,0.0,Weak Cold
2013-09-03,EMBLEM,8.94,-108.3906,44.4972,30.6,15.0,Weak Hot
2013-09-09,SPICKARD 7 W,23.61,-93.7158,40.2472,36.7,24.4,Strong Hot
2013-06-03,GLASGOW INTL AP,-10.8,-106.6213,48.2138,13.9,7.2,Weak Cold
2013-11-28,SEVIERVILLE,-14.83,-83.5983,35.9297,1.1,-6.1,Weak Cold
2013-05-03,HARRISON BOONE CO AP,-21.2,-93.1567,36.2667,3.3,0.0,Weak Cold
2013-01-29,CHICAGO MIDWAY AP 3SW,29.2,-87.7775,41.7372,16.1,4.4,Strong Hot
2013-01-13,GLENS FALLS AP,14.4,-73.6167,43.35,6.7,1.1,Weak Hot
2013-10-05,FORDYCE,10.83,-92.3989,33.8228,28.9,20.6,Weak Hot
2013-05-05,BURR OAK 1N,-14.88,-98.3036,39.8775,8.3,3.9,Weak Cold
2013-04-18,PAONIA 1 SW,-10.26,-107.6236,38.8522,0.0,-9.4,Weak Cold
2013-06-02,CONCORDIA MUNI AP,-8.77,-97.6508,39.5514,21.7,7.8,Weak Cold
2013-11-27,PALESTINE,-26.89,-87.6225,39.0028,-2.8,-9.4,Strong Cold
2013-04-06,BAMBERG,-9.85,-81.0306,33.3,15.6,2.8,Weak Cold
2013-05-13,MELSTONE,21.26,-107.8706,46.6006,34.4,13.3,Strong Hot
2013-07-16,MARATHON,-8.56,-103.2717,30.1925,23.9,17.2,Weak Cold
2013-06-04,VIDA 6 NE,-10.79,-105.3686,47.88,13.9,5.6,Weak Cold
2013-01-14,BAGDAD,-24.44,-113.1739,34.5972,2.2,-11.7,Strong Cold
2013-04-24,MINERAL WELLS AP,-11.32,-98.0603,32.7817,16.7,0.6,Weak Cold
2013-07-07,BOUSE,4.51,-114.0242,33.9431,46.7,25.6,Weak Hot
2013-07-03,PAUL 1ENE,5.76,-113.7622,42.6283,35.6,17.8,Weak Hot
2013-01-23,CARIBOU MUNI AP,-13.76,-68.0172,46.8706,-20.6,-28.9,Weak Cold
2013-12-01,TOMBSTONE,7.36,-110.0686,31.7119,21.1,10.0,Weak Hot
2013-09-14,ABIQUIU DAM,-9.5,-106.4278,36.2403,16.1,14.4,Weak Cold
2013-08-26,WINNER,7.07,-99.8403,43.3686,36.7,23.3,Weak Hot
2013-06-07,CLERMONT 9 S,-6.74,-81.7233,28.4558,25.6,21.1,Weak Cold
2013-09-02,VERNAL 2SW,9.8,-109.5531,40.4269,30.0,16.1,Weak Hot
2013-09-04,ELKO RGNL AP,9.57,-115.7886,40.8289,29.4,13.3,Weak Hot
2013-08-13,ROBERTSDALE,3.34,-87.7017,30.5653,33.3,25.0,Weak Hot
2013-09-25,GERLACH,-15.28,-119.3514,40.655,12.2,4.4,Weak Cold
2013-07-20,PINKHAM NOTCH,7.76,-71.2525,44.2581,31.1,17.2,Weak Hot
2013-02-19,KENMARE 1 WSW,-35.4,-102.0975,48.6692,-22.2,-33.9,Strong Cold
2013-07-13,PONCE 4 E,-5.08,-66.5253,18.0258,32.2,17.8,Weak Cold
2013-01-26,LAKE YELLOWSTONE,14.93,-110.3986,44.5619,-1.1,-3.3,Weak Hot
2013-09-04,MOSES LAKE GRANT CO AP,8.1,-119.3192,47.2078,32.2,16.7,Weak Hot
2013-11-30,MARTINSVILLE FLTR PLT,-9.15,-79.865,36.7056,8.3,-8.9,Weak Cold
2013-09-01,BINGHAMTON,8.98,-75.985,42.1997,27.2,19.4,Weak Hot
2013-05-13,ALBION 1 N,15.2,-104.2647,45.2089,33.9,9.4,Weak Hot
2013-06-01,JONESBORO,8.43,-67.6494,44.6453,30.6,17.8,Weak Hot
2013-10-05,GLENWOOD SPGS #2,-14.23,-107.3172,39.5181,4.4,-1.1,Weak Cold
2013-12-09,KAYCEE,-24.66,-106.6375,43.7144,-21.1,-27.8,Weak Cold
2013-09-03,PLAIN,9.52,-120.6456,47.785,31.7,14.4,Weak Hot
2013-04-19,WINSTON,-8.23,-107.6492,33.3497,10.6,-7.8,Weak Cold
2013-05-31,WESTHAMPTN GABRESKI AP,11.27,-72.6322,40.8436,30.0,15.0,Weak Hot
2013-12-07,HEADLAND,10.8,-85.3397,31.3625,27.2,11.1,Weak Hot
2013-01-12,MILWAUKEE MITCHELL AP,13.25,-87.9044,42.955,11.1,-2.2,Weak Hot
2013-05-28,GULKANA AP,13.01,-145.4589,62.1592,26.1,3.3,Weak Hot
2013-04-11,DAVIS 2 WSW EXP FARM,6.79,-121.7761,38.535,31.1,13.9,Weak Hot
2013-02-01,GRAND RPDS FOREST LAB,-15.88,-93.4975,47.2436,-19.4,-31.7,Weak Cold
2013-04-19,SAINT FRANCIS,-17.38,-101.8067,39.7675,1.1,-6.1,Weak Cold
2013-10-03,ST LOUIS LAMBERT INTL AP,23.26,-90.3736,38.7525,31.1,21.1,Strong Hot
2013-05-30,BAYTOWN,5.57,-94.9908,29.9142,28.3,25.6,Weak Hot
2013-01-31,KISSIMMEE 2,6.15,-81.4239,28.2764,28.9,12.8,Weak Hot
2013-07-19,LYNXVILLE DAM 9,8.06,-91.0986,43.2117,33.3,26.1,Weak Hot
2013-05-20,JACKSON REYNOLDS FLD,10.29,-84.4667,42.2667,31.1,17.8,Weak Hot
2013-12-04,VICTORIA RGNL AP,9.07,-96.9303,28.8614,28.3,18.3,Weak Hot
2013-06-30,MALAD CITY,18.88,-112.2872,42.1492,36.1,15.6,Strong Hot
2013-05-03,BROWNSVILLE,-17.96,-97.4186,25.9156,23.3,12.2,Strong Cold
2013-09-06,LAMAR,10.2,-102.6306,38.0936,38.3,17.2,Weak Hot
2013-11-19,MIDVILLE EXP STN,8.07,-82.2156,32.8753,28.3,5.6,Weak Hot
2013-07-16,STANLEY 2 NNE,-11.55,-105.9439,35.1767,18.9,11.7,Weak Cold
2013-04-19,DAYTONA BEACH INTL AP,7.15,-81.0483,29.1828,32.2,22.2,Weak Hot
2013-09-12,MT VERNON 3 NE,8.01,-88.8533,38.3483,33.9,21.7,Weak Hot
2013-01-12,CLARKS HILL 1 W,25.38,-82.1897,33.6631,23.9,14.4,Strong Hot
2013-09-07,RICE LAKE,10.73,-91.7719,45.4164,31.7,15.0,Weak Hot
2013-06-26,MOSQUERO 1 NE,8.0,-103.9439,35.8022,37.8,15.0,Weak Hot
2013-05-03,ST LOUIS LAMBERT INTL AP,-17.47,-90.3736,38.7525,7.2,5.0,Weak Cold
2013-08-24,GRAND FORKS INTL AP,8.75,-97.1839,47.9428,33.9,21.1,Weak Hot
2013-04-05,YAKIMA AIR TERMINAL,9.58,-120.5428,46.5683,20.0,11.1,Weak Hot
2013-10-19,FT BRAGG 5 N,-5.59,-123.7567,39.5092,11.7,3.3,Weak Cold
2013-05-03,HELENA 1 SSE,-26.25,-98.2661,36.5381,11.7,0.6,Strong Cold
2013-01-07,CACHUMA LAKE,-8.24,-119.9817,34.5822,10.6,-1.1,Weak Cold
2013-04-23,EMPORIA MUNI AP,-16.91,-96.1897,38.3306,2.8,0.0,Weak Cold
2013-10-24,RUSHVILLE 4NE,-12.5,-90.4792,40.1347,6.7,-0.6,Weak Cold
2013-07-13,HAYS 1 S,5.43,-99.3358,38.8586,40.0,24.4,Weak Hot
2013-01-26,GRAND LAKE 6 SSW,15.67,-105.8667,40.185,5.0,-1.7,Weak Hot
2013-04-28,WEST GLACIER,7.66,-113.9847,48.5003,15.0,6.7,Weak Hot
2013-12-05,KANAB,-9.86,-112.5367,37.0286,-0.6,-12.2,Weak Cold
2013-11-24,MILACA,-12.84,-93.6617,45.7533,-8.9,-16.7,Weak Cold
2013-07-19,LAKE PARK,15.46,-95.3247,43.4483,36.7,24.4,Strong Hot
2013-05-04,ELDORA,-30.89,-93.0989,42.3619,1.1,-1.1,Strong Cold
2013-07-16,HELENA 1 SSE,-10.67,-98.2661,36.5381,24.4,17.2,Weak Cold
2013-07-03,JERSEYVILLE 2 SW,-11.97,-90.3431,39.1025,18.9,15.0,Weak Cold
2013-09-10,MUSKEGON CO AP,21.69,-86.2367,43.1711,30.6,23.9,Strong Hot
2013-04-04,WAUSEON WTP,-9.97,-84.1453,41.5183,8.3,-7.2,Weak Cold
2013-11-13,RIVERSIDE FIRE STN 3,9.92,-117.3881,33.9511,33.3,10.0,Weak Hot
2013-10-03,ELSBERRY 1 S,23.1,-90.7847,39.1506,31.7,18.3,Strong Hot
2013-01-14,OAK CITY,-32.16,-112.3342,39.3758,-14.4,-21.1,Strong Cold
2013-12-31,HART 3 WSW,-10.56,-86.4239,43.6747,-9.4,-12.2,Weak Cold
2013-03-17,SEVIERVILLE,12.66,-83.5983,35.9297,25.0,14.4,Weak Hot
2013-12-08,POPLAR BLUFF,-13.41,-90.4056,36.7578,-5.0,-11.7,Weak Cold
2013-12-21,LAKE PROVIDENCE,13.5,-91.173,32.8067,22.2,16.7,Weak Hot
2013-04-27,AUGUSTA,12.18,-112.3964,47.4931,25.0,10.6,Weak Hot
2013-04-16,PRINEVILLE,-10.44,-120.8081,44.3022,5.6,-2.8,Weak Cold
2013-08-20,PARK RAPIDS MUNI AP,9.05,-95.0678,46.9006,35.0,18.9,Weak Hot
2013-06-30,BRIDGEPORT SIKORSKY MEM AP,5.52,-73.1289,41.1583,25.6,21.1,Weak Hot
2013-08-16,HIGHLANDS,-7.47,-83.1983,35.0567,17.2,11.7,Weak Cold
2013-07-17,ALPENA WWTP,8.85,-83.4281,45.0606,28.3,23.9,Weak Hot
2013-06-20,JUNEAU INTL AP,5.58,-134.5639,58.3567,21.1,13.3,Weak Hot
2013-06-12,KING SALMON,10.04,-156.6294,58.6794,25.6,3.3,Weak Hot
2013-05-01,IBAPAH,-8.85,-113.9886,40.0378,23.9,-7.8,Weak Cold
2013-04-13,WASHINGTON IS,-9.56,-86.8911,45.3581,-0.6,-4.4,Weak Cold
2013-01-12,OCONOMOWOC,28.12,-88.5036,43.1003,10.0,2.8,Strong Hot
2013-09-27,VISTA 2 NNE,-6.29,-117.2269,33.2294,27.2,9.4,Weak Cold
2013-06-24,PLYMOUTH-KINGSTON,18.45,-70.6961,41.9819,35.0,21.1,Strong Hot
2013-10-26,MT AIRY 2 W,-23.36,-80.6508,36.4992,10.0,-5.6,Strong Cold
2013-06-29,OLTON,5.58,-102.1356,34.1797,36.7,21.1,Weak Hot
2013-12-07,BRIGHT ANGEL RS,-12.62,-112.062,36.2147,-8.3,-12.2,Weak Cold
2013-04-04,WEST LIBERTY 3NW,-9.88,-83.3017,37.9414,12.8,-6.7,Weak Cold
2013-06-04,MT VERNON 3 NE,-9.47,-88.8533,38.3483,19.4,12.8,Weak Cold
2013-05-12,CLARINDA,-11.2,-95.0192,40.7244,16.7,-1.1,Weak Cold
2013-05-04,CHILTON,-11.93,-88.1469,44.0328,8.3,2.2,Weak Cold
2013-04-11,LEWISBURG 3 N,10.89,-80.4042,37.8564,28.9,9.4,Weak Hot
2013-07-30,OREGON,-11.45,-95.1464,39.9808,19.4,16.7,Weak Cold
2013-10-25,INDIANAPOLIS,-9.91,-86.2803,39.7075,9.4,-3.2,Weak Cold
2013-12-08,UNDERWOOD,-20.18,-101.1461,47.455,-25.0,-30.6,Weak Cold
2013-06-20,ROME 2 NW,-8.13,-117.6569,42.8592,22.2,-0.6,Weak Cold
2013-04-18,MUTUAL,-15.29,-99.17,36.2283,6.1,0.0,Weak Cold
2013-07-02,SONORA,-18.23,-100.6503,30.5831,24.4,12.8,Strong Cold
2013-09-04,MORAN 5WNW,8.58,-110.5889,43.8567,25.0,8.9,Weak Hot
2013-04-02,FALLS CITY BRENNER FLD,-11.73,-95.5919,40.0803,11.1,-6.6,Weak Cold
2013-09-07,KEMMERER 2N,7.85,-110.5328,41.8172,28.3,7.8,Weak Hot
2013-10-02,GLENS FALLS FARM,10.24,-73.6781,43.3247,26.1,-3.3,Weak Hot
2013-12-18,MILLBROOK,-10.86,-73.67,41.8553,-7.2,-15.0,Weak Cold
2013-12-07,PHILIPSBURG RS,-19.97,-113.3,46.3158,-19.4,-27.8,Weak Cold
2013-09-06,WALDEN,8.98,-106.2792,40.7442,25.6,8.3,Weak Hot
2013-08-31,BELLE PLAINE,9.62,-92.2764,41.8814,37.8,21.1,Weak Hot
2013-05-29,COLLEGE OBSY,11.44,-147.8483,64.8603,26.7,10.0,Weak Hot
2013-01-13,ZUNI,-10.28,-108.8389,35.0706,-1.7,-21.1,Weak Cold
2013-08-19,ABERDEEN PHILLIPS FLD,-6.39,-76.1697,39.4717,23.3,16.7,Weak Cold
2013-08-15,LAKE PLACID 2 S,-7.79,-73.985,44.2489,16.1,5.6,Weak Cold
2013-12-08,RAPELJE,-22.59,-109.2531,45.9636,-12.8,-32.2,Weak Cold
2013-06-23,MANATI 2 E,-4.27,-66.4661,18.4308,27.2,22.8,Weak Cold
2013-11-09,COLD BAY AP,15.66,-162.7325,55.2208,12.8,5.6,Strong Hot
2013-07-17,CALEDONIA,7.14,-91.5028,43.6308,31.7,22.8,Weak Hot
2013-07-12,FT COLLINS,4.93,-105.1314,40.6147,32.8,19.4,Weak Hot
2013-09-02,ROSCOE,6.54,-100.5264,32.4481,35.6,23.3,Weak Hot
2013-12-06,VALLECITO DAM,-10.08,-107.5822,37.3842,-6.7,-17.2,Weak Cold
2013-10-05,ROCKVILLE,13.12,-87.2269,39.7594,27.2,20.0,Weak Hot
2013-01-12,MESA VERDE NP,-11.95,-108.4883,37.1986,-7.8,-17.2,Weak Cold
2013-03-15,LINDBERGH LAKE,7.29,-113.7125,47.4083,8.3,1.7,Weak Hot
2013-01-26,CARLSBAD,10.68,-104.2225,32.3478,22.2,8.3,Weak Hot
2013-08-13,WHITEVILLE 7 NW,4.36,-78.7914,34.4094,35.0,24.4,Weak Hot
2013-12-04,SEXTON SUMMIT,-8.87,-123.3642,42.6003,-3.8,-8.8,Weak Cold
2013-12-22,ASHEVILLE,13.39,-82.5567,35.5953,18.3,12.8,Weak Hot
2013-04-24,DENTON 2 SE,-10.36,-97.105,33.1992,18.3,1.7,Weak Cold
2013-01-12,CROSSVILLE MEM AP,32.72,-85.0814,35.9508,19.4,16.7,Strong Hot
2013-05-24,SCOTTSBLUFF HEILIG AP,7.77,-103.5931,41.8706,28.9,13.9,Weak Hot
2013-05-22,CHATHAM,8.45,-79.4103,36.8225,28.3,17.8,Weak Hot
2013-12-08,DAYTONA BEACH,8.02,-81.0083,29.1967,30.0,18.9,Weak Hot
2013-02-21,GLENNVILLE,-22.27,-118.7006,35.7269,1.7,-10.6,Strong Cold
2013-04-18,ALTAMONT,-15.72,-110.2878,40.3561,-2.2,-10.0,Weak Cold
2013-04-12,WILLIAMSBURG 2 N,11.94,-76.7039,37.3017,28.3,19.4,Weak Hot
2013-10-06,CANTON 4N,11.65,-90.0361,32.6714,31.1,21.7,Weak Hot
2013-03-23,RAYMONDVILLE,8.27,-97.8097,26.4819,30.0,21.7,Weak Hot
2013-05-26,FALLS VILLAGE,-14.69,-73.3667,41.95,7.2,5.0,Weak Cold
2013-07-03,BRENHAM,-3.53,-96.3972,30.1592,33.9,19.4,Weak Cold
2013-10-05,RANTOUL,25.44,-88.1594,40.3131,31.1,18.9,Strong Hot
2013-09-14,COUPEVILLE 1 S,4.61,-122.6914,48.2072,17.2,13.3,Weak Hot
2013-01-30,LONDON STATE FISH HATCHERY,30.43,-83.5097,39.8972,16.7,7.2,Strong Hot
2013-07-27,CHICAGO OHARE INTL AP,-10.64,-87.9336,41.995,18.3,12.8,Weak Cold
2013-06-25,RAPELJE,7.7,-109.2531,45.9636,27.2,15.6,Weak Hot
2013-11-17,FAYETTEVILLE WTP,13.12,-86.5411,35.15,20.0,16.1,Weak Hot
2013-04-20,MONTEVIDEO 1 SW,-11.21,-95.7461,44.9342,0.0,-10.0,Weak Cold
2013-10-29,POKEGAMA DAM,-9.6,-93.5861,47.2508,2.8,-7.8,Weak Cold
2013-09-04,MOSBY 4 ENE,10.32,-107.8225,47.0219,32.8,17.8,Weak Hot
2013-08-05,LAKE CITY 2 E,2.71,-82.5942,30.1853,33.9,24.4,Weak Hot
2013-10-21,LULING,-12.35,-97.6578,29.6756,15.6,7.8,Weak Cold
2013-04-17,D'LO 2 SW,10.98,-89.9328,31.9544,30.6,21.1,Weak Hot
2013-06-30,PARTOUN,10.93,-113.8858,39.6308,38.3,20.6,Weak Hot
2013-08-28,ROCHESTER INTL AP,7.31,-92.4917,43.9042,30.0,21.7,Weak Hot
2013-04-10,PHILIP AP,-17.5,-101.6011,44.0511,-2.1,-6.6,Weak Cold
2013-09-10,BLUEFIELD MERCER CO AP,15.72,-81.2078,37.2958,31.1,20.6,Strong Hot
2013-07-03,ABILENE RGNL AP,-6.9,-99.6822,32.4106,32.2,15.6,Weak Cold
2013-09-07,FT LAUDERDALE,2.83,-80.2011,26.1019,32.2,26.7,Weak Hot
2013-01-18,BEOWAWE,-11.85,-116.475,40.5903,-8.3,-24.4,Weak Cold
2013-07-13,WATERTOWN RGNL AP,6.71,-97.1494,44.9047,30.0,22.2,Weak Hot
2013-05-25,SAN JON,8.75,-103.3283,35.1086,36.7,16.7,Weak Hot
2013-08-08,BATESVILLE 2 SW,4.63,-89.9806,34.3061,32.8,23.9,Weak Hot
2013-01-29,LOUISVILLE INTL AP,16.56,-85.7392,38.1811,19.4,12.8,Weak Hot
2013-06-01,SCOTTSBORO,4.99,-86.0536,34.6736,30.0,22.2,Weak Hot
2013-09-07,KAMAS,7.99,-111.2822,40.6439,28.9,12.2,Weak Hot
2013-04-04,BLOOMINGTON IN UNIV,-10.45,-86.5214,39.1742,9.4,-4.4,Weak Cold
2013-10-03,CORNWALL,10.87,-73.2106,43.9572,25.6,4.4,Weak Hot
2013-11-29,MILWAUKEE MT MARY CLG,-12.54,-88.0294,43.0719,-1.7,-12.8,Weak Cold
2013-07-09,POCAHONTAS,6.17,-94.6614,42.7292,35.0,22.8,Weak Hot
2013-09-10,DESERET,9.69,-112.6519,39.2872,22.2,16.1,Weak Hot
2013-01-31,KANE 1NNE,15.74,-78.8036,41.6767,14.4,-3.9,Weak Hot
2013-07-07,EAST WAREHAM,5.47,-70.6697,41.7653,31.1,22.8,Weak Hot
2013-06-30,RIDDLE,11.36,-123.3572,42.9506,36.1,14.4,Weak Hot
2013-09-26,NEEDLES AP,-9.94,-114.6189,34.7675,28.3,19.4,Weak Cold
2013-05-14,MARTINSBURG E WV RGNL AP,-10.83,-77.9844,39.4019,17.8,-0.5,Weak Cold
2013-05-05,LIBERAL,-11.77,-100.9294,37.0222,18.3,-1.1,Weak Cold
2013-12-04,BALLINGER 2 NW,12.89,-99.9764,31.7414,28.9,6.1,Weak Hot
2013-05-04,WHITE LAKE,-11.01,-98.7131,43.7292,11.7,-3.3,Weak Cold
2013-06-28,BURNET,5.68,-98.2339,30.7586,37.8,21.7,Weak Hot
2013-07-06,BELLE MINA 2 N,-7.96,-86.8819,34.6892,24.4,18.9,Weak Cold
2013-09-02,LAVON DAM,6.0,-96.4861,33.0353,38.3,24.4,Weak Hot
2013-06-07,DOUGLAS,-9.41,-82.8206,31.4889,23.3,21.1,Weak Cold
2013-10-30,MCKENZIE BRG RS,-6.61,-122.1164,44.1792,9.4,-2.8,Weak Cold
2013-08-30,MEDICINE CREEK DAM,9.76,-100.2228,40.3761,40.6,15.6,Weak Hot
2013-07-06,HALEYVILLE,-6.74,-87.6353,34.2314,25.0,18.3,Weak Cold
2013-01-13,THOMASVILLE 7 NE,8.95,-83.8611,30.9139,26.1,13.9,Weak Hot
2013-06-02,LANCASTER 2NE FLTR PLT,7.54,-76.2742,40.05,35.0,17.2,Weak Hot
2013-09-11,PLYMOUTH,11.95,-87.9714,43.73,33.9,18.9,Weak Hot
2013-01-12,OAK RIDGE ATDD,31.17,-84.2486,36.0028,21.7,15.0,Strong Hot
2013-01-12,LAKE YELLOWSTONE,-11.42,-110.3986,44.5619,-16.1,-26.1,Weak Cold
2013-05-02,DODGE CITY,-26.29,-99.9683,37.7608,11.1,-1.6,Strong Cold
2013-07-13,SAINT FRANCIS,7.17,-101.8067,39.7675,40.6,18.3,Weak Hot
2013-03-24,BRUNSWICK MALCOLM MCKINNON AP,8.44,-81.3908,31.1522,28.9,13.9,Weak Hot
2013-02-01,WINTERSET 1N,-16.87,-94.0128,41.3561,-15.0,-22.8,Weak Cold
2013-09-10,WILLIAMSBURG 3SE,13.42,-91.9783,41.6403,37.8,20.6,Weak Hot
2013-08-15,IDABEL,-6.68,-94.8278,33.9336,28.9,13.9,Weak Cold
2013-05-02,HOBBS,-11.38,-103.1314,32.7264,27.2,1.7,Weak Cold
2013-04-23,HOWARD,-11.61,-97.5242,44.0122,6.1,-10.0,Weak Cold
2013-09-11,IONIA 2SSW,22.75,-85.0778,42.9531,32.8,22.2,Strong Hot
2013-06-18,EPHRATA MUNI AP,-10.24,-119.5153,47.3078,16.7,12.2,Weak Cold
2013-01-14,BOONTON 1 SE,12.55,-74.4033,40.8922,8.9,5.0,Weak Hot
2013-10-30,BOYSEN DAM,-15.35,-108.1633,43.4053,1.1,-2.2,Weak Cold
2013-12-18,HARLOWTON,25.36,-109.8311,46.4328,15.0,3.3,Strong Hot
2013-12-02,IMPERIAL MUNI AP,10.46,-101.62,40.51,17.8,1.1,Weak Hot
2013-01-14,LOVELOCK DERBY FLD,-29.0,-118.5692,40.0681,-6.1,-24.4,Strong Cold
2013-04-01,THREE LYNX,5.9,-122.07,45.1219,22.8,8.9,Weak Hot
2013-04-03,MORRIS WC EXP STN,-10.55,-95.8747,45.5903,-1.1,-10.0,Weak Cold
2013-04-10,WHALEN DAM USBR,-18.31,-104.6281,42.2494,-2.2,-10.6,Weak Cold
2013-01-03,BEND,-14.17,-121.285,44.0569,-8.9,-17.2,Weak Cold
2013-10-01,MILACA,11.67,-93.6617,45.7533,23.3,13.3,Weak Hot
2013-07-10,PAOLI,6.12,-86.4858,38.5556,32.2,23.9,Weak Hot
2013-07-15,PLAINVIEW,-5.13,-101.7022,34.1892,36.7,14.4,Weak Cold
2013-06-08,SPRINGERVILLE,5.95,-109.275,34.1311,33.3,6.7,Weak Hot
2013-07-18,WASHINGTON REAGAN AP,4.99,-77.0342,38.8483,35.0,26.7,Weak Hot
2013-06-08,FIVE POINTS 5 SSW,16.54,-120.1561,36.3642,42.8,21.1,Strong Hot
2013-09-27,PACKWOOD,-12.82,-121.6744,46.6092,10.0,5.6,Weak Cold
2013-12-08,LOCKWOOD,-14.42,-93.9489,37.3908,-6.7,-15.0,Weak Cold
2013-09-01,MARIETTA 5SW,10.24,-97.1642,33.8761,40.6,20.6,Weak Hot
2013-07-03,LLANO,-8.77,-98.6542,30.7425,33.3,13.3,Weak Cold
2013-12-08,MT HAMILTON,-20.95,-121.6425,37.3436,-1.1,-6.7,Strong Cold
2013-04-18,IDAHO FALLS 46 W,-11.54,-112.9422,43.5317,11.7,-13.9,Weak Cold
2013-05-02,KANOPOLIS LAKE,-12.92,-97.9597,38.6078,11.1,0.0,Weak Cold
2013-07-23,COLLEGE STN,2.84,-96.3647,30.5892,36.7,26.1,Weak Hot
2013-06-13,SPRINGFIELD EXP STN,7.08,-86.8414,36.4711,32.8,23.9,Weak Hot
2013-07-09,STEHEKIN 4 NW,8.14,-120.7264,48.3508,23.9,20.6,Weak Hot
2013-05-05,DONALDSONVILLE 4 SW,-20.44,-91.0278,30.0719,21.1,6.1,Strong Cold
2013-09-06,KENMARE 1 WSW,23.33,-102.0975,48.6692,33.9,15.6,Strong Hot
2013-01-02,ZUNI,-12.81,-108.8389,35.0706,5.0,-22.2,Weak Cold
2013-12-08,MADILL,-16.96,-96.7708,34.0919,-4.4,-10.6,Weak Cold
2013-04-14,SANDPOINT EXP STN,-9.58,-116.5628,48.2942,3.9,-1.7,Weak Cold
2013-06-28,TOK,9.81,-143.0372,63.3336,25.6,14.4,Weak Hot
2013-09-30,SAN DIEGO LINDBERGH FLD,-3.65,-117.1831,32.7336,26.7,15.0,Weak Cold
2013-07-29,WINTERSET 1N,-9.57,-94.0128,41.3561,23.3,7.8,Weak Cold
2013-11-29,LAFAYETTE RGNL AP,-12.05,-91.9875,30.205,16.1,-2.1,Weak Cold
2013-04-24,CLOVIS 13 N,-29.57,-103.2161,34.5989,6.7,-9.4,Strong Cold
2013-12-09,JACKSONVILLE NAS,9.05,-81.6667,30.2333,28.9,17.8,Weak Hot
2013-05-03,PRESTON,-19.67,-92.0747,43.6725,1.1,-1.1,Weak Cold
2013-03-15,NEPHI,10.41,-111.8319,39.7122,21.7,8.3,Weak Hot
2013-09-06,BROOKINGS 2 NE,10.99,-96.7686,44.3253,28.9,18.9,Weak Hot
2013-10-04,PRESTON,13.1,-92.0747,43.6725,20.6,15.0,Weak Hot
2013-07-23,GOODWELL RSCH STN,4.22,-101.6181,36.5914,39.4,22.2,Weak Hot
2013-09-06,CHUGWATER,10.43,-104.8222,41.7594,33.9,15.6,Weak Hot
2013-04-09,MILLVILLE MUNI AP,22.79,-75.0667,39.3667,29.4,15.6,Strong Hot
2013-07-02,FALLON NAAS,6.36,-118.7167,39.4167,41.1,20.6,Weak Hot
2013-09-02,FREDERICKSBURG,5.61,-98.9089,30.2392,37.2,23.3,Weak Hot
2013-07-08,EASTMAN 1 W,-9.82,-83.2058,32.2003,23.3,22.8,Weak Cold
2013-12-04,GRUNDY CTR,11.72,-92.7594,42.3647,3.9,1.1,Weak Hot
2013-05-12,COLDWATER ST SCHOOL,-13.44,-84.9925,41.9622,7.2,0.0,Weak Cold
2013-06-08,SURRY MTN LAKE,-11.24,-72.3128,42.9967,12.8,10.0,Weak Cold
2013-09-22,MANLEY HOT SPRINGS,-11.73,-150.638,64.9989,1.1,-1.7,Weak Cold
2013-09-20,CROCKETT,4.96,-95.4508,31.3072,35.6,23.9,Weak Hot
2013-01-24,WICKENBURG,9.89,-112.7403,33.9792,23.9,10.0,Weak Hot
2013-05-06,HENDERSON 8 SSW,-10.37,-87.6456,37.7558,15.0,9.4,Weak Cold
2013-07-02,HOMERVILLE 5 N,-6.23,-82.8003,31.0767,27.2,21.7,Weak Cold
2013-12-06,YADKINVILLE 6 E,16.08,-80.5481,36.1306,19.4,14.4,Weak Hot
2013-07-10,MONTICELLO MUNI AP,4.25,-91.7556,33.6361,36.1,25.6,Weak Hot
2013-05-05,HONOLULU INTL AP,-5.43,-157.9294,21.3239,23.9,20.0,Weak Cold
2013-01-14,LAUREL 3 W,10.91,-76.9003,39.0847,14.4,7.2,Weak Hot
2013-06-13,CHARLESTON CITY,3.75,-79.9319,32.78,34.4,26.7,Weak Hot
2013-05-21,ERIE INTL AP,11.68,-80.1825,42.08,30.6,19.4,Weak Hot
2013-11-25,EVENING SHADE 1 NNE,-17.72,-91.6169,36.0717,-1.1,-7.2,Weak Cold
2013-07-17,NEILLSVILLE 3ESE,7.66,-90.535,44.5378,33.3,21.1,Weak Hot
2013-11-13,LINCOLNTON 4 W,-10.24,-81.3289,35.4606,9.4,-6.7,Weak Cold
2013-01-10,ANDERSON CO AP,10.95,-82.7097,34.4978,22.2,9.4,Weak Hot
2013-05-19,EAU CLAIRE 4 NE,11.04,-86.2408,42.0147,32.8,15.0,Weak Hot
2013-10-30,DIABLO DAM,-5.57,-121.1431,48.7142,10.6,-0.6,Weak Cold
2013-12-22,BATESVILLE 2 SW,13.32,-89.9806,34.3061,25.6,11.7,Weak Hot
2013-03-17,GUAM INTL AP,2.53,144.7961,13.4836,32.2,24.4,Weak Hot
2013-06-30,DUGWAY,21.69,-112.9217,40.1839,40.6,22.2,Strong Hot
2013-06-24,ANTIOCH PUMPING PLANT #3,-10.87,-121.7525,37.9833,18.9,16.1,Weak Cold
2013-04-14,LAS VEGAS MUNI AP,7.91,-105.1419,35.6542,21.1,8.3,Weak Hot
2013-09-11,EL VADO DAM,9.5,-106.73,36.5928,17.8,13.3,Weak Hot
2013-12-05,ALTAMONT,-24.43,-110.2878,40.3561,-12.2,-24.4,Strong Cold
2013-05-12,RED OAK,-10.87,-95.2419,41.0036,16.1,-0.6,Weak Cold
2013-07-02,DEER LODGE 3 W,8.64,-112.7975,46.3911,35.6,11.7,Weak Hot
2013-07-29,CROSSVILLE MEM AP,-6.43,-85.0814,35.9508,25.6,11.7,Weak Cold
2013-01-01,JOHN DAY,-12.07,-118.9594,44.4233,-6.7,-16.7,Weak Cold
2013-08-24,DE SMET,7.61,-97.5606,44.3867,32.8,22.8,Weak Hot
2013-07-04,PALMDALE AP,6.34,-118.0836,34.6294,40.0,25.0,Weak Hot
2013-10-07,WILMINGTON INTL AP,10.41,-77.8997,34.2675,28.9,22.8,Weak Hot
2013-09-04,YELLOWSTONE PK MAMMOTH,9.1,-110.6964,44.9767,27.8,12.8,Weak Hot
2013-06-28,PALISADES,9.03,-111.2167,43.35,32.2,12.2,Weak Hot
2013-09-06,MOORE HAVEN LOCK 1,3.45,-81.0872,26.84,32.2,26.1,Weak Hot
2013-02-27,SAN JUAN L M MARIN AP,3.48,-66.0108,18.4325,32.2,22.8,Weak Hot
2013-12-05,MIDWEST,-19.44,-106.2772,43.4131,-17.2,-26.7,Weak Cold
2013-05-22,ANGLETON 2 W,6.97,-95.4592,29.1572,31.1,26.1,Weak Hot
2013-04-29,SIDNEY MUNI AP,12.68,-102.9847,41.1014,27.8,2.2,Weak Hot
2013-12-07,DILLION U OF MONTANA WESTERN,-41.69,-112.6447,45.2128,-21.1,-29.4,Strong Cold
2013-07-28,AMITY 4 NE,-7.6,-94.36,39.8914,23.9,11.1,Weak Cold
2013-04-13,TUSCARORA,7.93,-116.2225,41.3144,14.4,5.6,Weak Hot
2013-09-02,INGOMAR 14 NE,14.88,-107.2078,46.7392,33.9,20.6,Weak Hot
2013-04-15,BROCKWAY 3 WSW,-15.18,-105.83,47.2875,-1.7,-6.1,Weak Cold
2013-02-01,NORWICH PUB UTILITY PLANT,11.03,-72.0642,41.5269,15.6,-2.2,Weak Hot
2013-06-30,GROUSE,21.02,-113.5472,43.7186,33.9,11.1,Strong Hot
2013-05-06,CALICO ROCK 2 WSW,-12.44,-92.1636,36.1092,13.9,2.8,Weak Cold
2013-05-02,BRECKENRIDGE,-10.98,-98.9017,32.75,30.0,5.0,Weak Cold
2013-06-14,HOMERVILLE 5 N,4.45,-82.8003,31.0767,35.0,23.3,Weak Hot
2013-12-27,GREAT FALLS INTL AP,27.99,-111.3822,47.4733,14.4,5.6,Strong Hot
2013-06-07,STEHEKIN 4 NW,-6.3,-120.7264,48.3508,26.7,3.3,Weak Cold
2013-07-22,DEL NORTE 3ENE,4.31,-106.3083,37.6908,29.4,13.3,Weak Hot
2013-04-28,BILLINGS LOGAN INTL AP,9.86,-108.5422,45.8069,18.3,11.1,Weak Hot
2013-01-13,WALNUT CREEK,-12.4,-112.8097,34.9281,1.7,-18.3,Weak Cold
2013-05-03,BALLINGER 2 NW,-33.76,-99.9764,31.7414,11.7,1.1,Strong Cold
2013-04-17,BROADUS,-15.74,-105.4072,45.4442,-0.6,-7.8,Weak Cold
2013-10-26,SANTUCK,-12.46,-81.5206,34.635,15.6,-2.2,Weak Cold
2013-09-10,TEKAMAH,11.58,-96.2328,41.7767,37.2,18.3,Weak Hot
2013-08-04,AMARILLO,4.23,-101.7089,35.2333,36.7,22.2,Weak Hot
2013-05-03,FOREST LAKE 5NE,-12.17,-92.9125,45.3397,8.9,-0.6,Weak Cold
2013-07-18,LAPEER WWTP,8.4,-83.3075,43.0608,34.4,23.3,Weak Hot
2013-09-02,MALHEUR REFUGE HQ,11.01,-118.8447,43.265,22.8,15.0,Weak Hot
2013-12-08,DUNKIRK 19NNE,-20.66,-111.4747,48.7167,-16.1,-35.0,Weak Cold
2013-04-28,BEULAH,10.71,-118.1522,43.9092,26.7,4.4,Weak Hot
2013-05-04,CORINTH 7 SW,-11.52,-88.6178,34.8792,21.1,2.8,Weak Cold
2013-05-29,CIMARRON 4 SW,7.78,-104.9456,36.4661,27.2,12.2,Weak Hot
2013-07-27,DULUTH,-11.46,-92.2097,46.8369,13.3,9.4,Weak Cold
2013-07-03,BOONEVILLE,-6.43,-88.5622,34.6344,27.2,14.4,Weak Cold
2013-12-07,CARLSBAD CAVERN CITY AP,-16.49,-104.2581,32.3336,-2.1,-6.6,Weak Cold
2013-06-06,LEECH LAKE,-12.08,-94.2228,47.2467,11.7,6.7,Weak Cold
2013-12-11,WUPATKI NM,-11.38,-111.3703,35.5247,-2.8,-10.0,Weak Cold
2013-04-24,PLAINVILLE 4WNW,-17.17,-99.3808,39.245,1.7,-5.6,Weak Cold
2013-01-15,COWEETA EXP STN,14.82,-83.4314,35.0592,18.3,11.1,Weak Hot
2013-05-03,GREENVILLE KGVL RADIO,-27.7,-96.0983,33.1678,12.2,2.8,Strong Cold
2013-01-10,FARGO HECTOR INTL AP,31.96,-96.8111,46.9253,6.1,-1.7,Strong Hot
2013-02-01,RED OAK,-15.34,-95.2419,41.0036,-12.2,-21.1,Weak Cold
2013-07-09,LAS VEGAS MUNI AP,3.28,-105.1419,35.6542,31.1,15.6,Weak Hot
2013-01-29,TRAVERSE CITY CHERRY CPTL AP,13.0,-85.5825,44.7408,10.6,0.0,Weak Hot
2013-11-28,OAKLAND 1 SE,-13.05,-79.4,39.4133,-2.8,-8.9,Weak Cold
2013-07-17,TALKEETNA AP,4.35,-150.095,62.32,21.1,14.4,Weak Hot
2013-08-19,BAY MINETTE,-7.19,-87.7853,30.8839,25.0,21.7,Weak Cold
2013-09-07,SPOONER AG RES STN,20.97,-91.8761,45.8236,31.7,18.9,Strong Hot
2013-09-03,SOLOMONS,5.49,-76.4525,38.3197,31.1,23.9,Weak Hot
2013-06-02,NESS CITY,-11.53,-99.91,38.4478,23.3,3.9,Weak Cold
2013-09-04,WICKENBURG,8.9,-112.7403,33.9792,40.0,25.0,Weak Hot
2013-12-26,CAMPO,9.62,-116.4728,32.6233,17.2,10.0,Weak Hot
2013-07-02,CLAREMORE 2 ENE,-8.18,-95.5808,36.3225,28.3,12.8,Weak Cold
2013-06-13,MTN DELL DAM,9.27,-111.7222,40.7497,29.4,16.7,Weak Hot
2013-06-29,MARLIN 3 NE,7.26,-96.8581,31.3336,40.0,22.2,Weak Hot
2013-09-08,WAUPACA,9.09,-89.0592,44.3547,31.1,12.8,Weak Hot
